$GPGGA,054501.326,0000.0000,N,00000.0000,E,0,00,0.0,0.0,M,0.0,M,,*6F
$GPRMC,054501.326,V,0000.0000,N,00000.0000,E,0.0,0.0,150911,,,N*79
$GPGLL,0000.0000,N,00000.0000,E,054501.326,V,N*43
$GPGSA,A,1,,,,,,,,,,,,,,0.0,*30
$GPVTG,0.0,T,,M,0.0,N,0.0,K,N*02
$GPGSV,3,1,09,01,00,000,40,07,45,163,36,08,72,186,35,11,40,061,33*77
$GPGSV,3,2,09,19,10,051,33,24,48,105,38,28,57,318,36,17,36,241,2*48
$GPGSV,3,3,09,22,00,025,25*40
$GPGGA,054502.326,0000.0000,N,00000.0000,E,0,00,0.0,0.0,M,0.0,M,,*6C
$GPRMC,054502.326,V,0000.0000,N,00000.0000,E,0.0,0.0,150911,,,N*7A
$GPGLL,0000.0000,N,00000.0000,E,054502.326,V,N*40
$GPGSA,A,1,,,,,,,,,,,,,,0.0,*30
$GPVTG,0.0,T,,M,0.0,N,0.0,K,N*02
$GPGSV,3,1,09,01,00,000,40,07,45,163,36,08,72,186,35,11,40,061,33*77
$GPGSV,3,2,09,19,10,051,33,24,48,105,38,28,57,318,36,17,36,241,2*48
$GPGSV,3,3,09,22,00,025,24*41
$GPGGA,054503.326,0000.0000,N,00000.0000,E,0,00,0.0,0.0,M,0.0,M,,*6D
$GPRMC,054503.326,V,0000.0000,N,00000.0000,E,0.0,0.0,150911,,,N*7B
$GPGLL,0000.0000,N,00000.0000,E,054503.326,V,N*41
$GPGSA,A,1,,,,,,,,,,,,,,0.0,*30
$GPVTG,0.0,T,,M,0.0,N,0.0,K,N*02
$GPGSV,3,1,09,01,00,000,40,07,45,163,36,08,72,186,35,11,40,061,33*77
$GPGSV,3,2,09,19,10,051,33,24,48,105,39,28,57,318,36,17,36,241,2*49
$GPGSV,3,3,09,22,00,025,24*41
$GPGGA,054504.324,3715.2199,N,12703.2972,E,1,05,1.6,37.8,M,19.9,M,,*6C
$GPRMC,054504.324,A,3715.2199,N,12703.2972,E,0.5,130.1,150911,,,A*6A
$GPGLL,3715.2199,N,12703.2972,E,054504.324,A,A*56
$GPGSA,A,3,07,11,19,24,28,,,,,,,,,1.6,*36
$GPVTG,130.1,T,,M,0.5,N,1.0,K,A*0A
$GPGSV,3,1,09,01,00,000,40,07,44,163,36,08,72,186,35,11,50,073,33*74
$GPGSV,3,2,09,19,14,051,33,24,47,093,39,28,57,318,36,17,36,241,2*4C
$GPGSV,3,3,09,22,00,025,24*41
$GPGGA,054505.324,3715.2202,N,12703.2978,E,1,05,1.6,29.6,M,19.9,M,,*67
$GPRMC,054505.324,A,3715.2202,N,12703.2978,E,0.3,130.1,150911,,,A*66
$GPGLL,3715.2202,N,12703.2978,E,054505.324,A,A*5C
$GPGSA,A,3,07,11,19,24,28,,,,,,,,,1.6,*36
$GPVTG,130.1,T,,M,0.3,N,0.5,K,A*08
$GPGSV,3,1,09,01,00,000,40,07,39,219,36,08,48,259,35,11,82,054,33*72
$GPGSV,3,2,09,19,37,058,33,24,78,150,39,28,33,313,36,17,08,268,2*49
$GPGSV,3,3,09,22,07,042,24*47
$GPGGA,054506.000,3715.2201,N,12703.2978,E,1,05,1.6,29.6,M,19.9,M,,*62
$GPRMC,054506.000,A,3715.2201,N,12703.2978,E,0.1,130.1,150911,,,A*61
$GPGLL,3715.2201,N,12703.2978,E,054506.000,A,A*59
$GPGSA,A,3,07,11,19,24,28,,,,,,,,,1.6,*36
$GPVTG,130.1,T,,M,0.1,N,0.1,K,A*0E
$GPGSV,3,1,09,01,00,000,40,07,39,219,35,08,48,259,35,11,82,054,33*71
$GPGSV,3,2,09,19,37,058,33,24,78,150,39,28,33,313,37,17,08,268,2*48
$GPGSV,3,3,09,22,07,042,25*46
$GPGGA,054507.000,3715.2199,N,12703.2981,E,1,05,1.6,28.3,M,19.9,M,,*63
$GPRMC,054507.000,A,3715.2199,N,12703.2981,E,0.0,130.1,150911,,,A*65
$GPGLL,3715.2199,N,12703.2981,E,054507.000,A,A*5C
$GPGSA,A,3,07,11,19,24,28,,,,,,,,,1.6,*36
$GPVTG,130.1,T,,M,0.0,N,0.0,K,A*0E
$GPGSV,3,1,09,01,00,000,40,07,39,219,35,08,48,259,35,11,82,054,33*71
$GPGSV,3,2,09,19,37,058,32,24,78,150,39,28,33,313,37,17,08,268,2*49
$GPGSV,3,3,09,22,07,042,25*46
$GPGGA,054508.000,3715.2199,N,12703.2981,E,1,05,1.6,28.3,M,19.9,M,,*6C
$GPRMC,054508.000,A,3715.2199,N,12703.2981,E,0.0,130.1,150911,,,A*6A
$GPGLL,3715.2199,N,12703.2981,E,054508.000,A,A*53
$GPGSA,A,3,07,11,19,24,28,,,,,,,,,1.6,*36
$GPVTG,130.1,T,,M,0.0,N,0.0,K,A*0E
$GPGSV,3,1,09,01,00,000,40,07,39,219,35,08,48,259,35,11,82,054,33*71
$GPGSV,3,2,09,19,37,058,32,24,78,150,39,28,33,313,37,17,08,268,2*49
$GPGSV,3,3,09,22,07,042,25*46
$GPGGA,054509.000,3715.2199,N,12703.2981,E,1,05,1.6,28.3,M,19.9,M,,*6D
$GPRMC,054509.000,A,3715.2199,N,12703.2981,E,0.0,130.1,150911,,,A*6B
$GPGLL,3715.2199,N,12703.2981,E,054509.000,A,A*52
$GPGSA,A,3,07,11,19,24,28,,,,,,,,,1.6,*36
$GPVTG,130.1,T,,M,0.0,N,0.0,K,A*0E
$GPGSV,1,6,,,,,,,,,,,,,0.0*50
$GPGGA,054510.000,3715.2199,N,12703.2981,E,1,05,1.6,28.3,M,19.9,M,,*65
$GPRMC,054510.000,A,3715.2199,N,12703.2981,E,0.0,130.1,150911,,,A*63
$GPGLL,3715.2199,N,12703.2981,E,054510.000,A,A*5A
$GPGSA,A,3,07,11,19,24,28,,,,,,,,,1.6,*36
$GPVTG,130.1,T,,M,0.0,N,0.0,K,A*0E
$GPGSV,3,1,09,01,00,000,40,07,39,219,38,08,48,259,35,11,82,054,34*7B
$GPGSV,3,2,09,19,37,058,31,24,78,150,38,28,33,313,38,17,08,268,3*45
$GPGSV,3,3,09,22,07,042,25*46
$GPGGA,054511.000,3715.2199,N,12703.2981,E,1,05,1.6,28.3,M,19.9,M,,*64
$GPRMC,054511.000,A,3715.2199,N,12703.2981,E,0.0,130.1,150911,,,A*62
$GPGLL,3715.2199,N,12703.2981,E,054511.000,A,A*5B
$GPGSA,A,3,07,11,19,24,28,,,,,,,,,1.6,*36
$GPVTG,130.1,T,,M,0.0,N,0.0,K,A*0E
$GPGSV,1,6,,,,,,,,,,,,,0.0*50
$GPGGA,054512.000,3715.2199,N,12703.2981,E,1,05,1.6,28.3,M,19.9,M,,*67
$GPRMC,054512.000,A,3715.2199,N,12703.2981,E,0.0,130.1,150911,,,A*61
$GPGLL,3715.2199,N,12703.2981,E,054512.000,A,A*58
$GPGSA,A,3,07,11,19,24,28,,,,,,,,,1.6,*36
$GPVTG,130.1,T,,M,0.0,N,0.0,K,A*0E
$GPGSV,3,1,10,01,00,000,40,07,39,219,34,08,48,259,37,11,82,054,35*7C
$GPGSV,3,2,10,19,37,058,31,24,78,150,37,28,33,313,35,03,11,081,2*46
$GPGSV,3,3,10,17,08,268,31,22,07,042,24*7F
$GPGGA,054513.000,3715.2199,N,12703.2981,E,1,05,1.6,28.3,M,19.9,M,,*66
$GPRMC,054513.000,A,3715.2199,N,12703.2981,E,0.0,130.1,150911,,,A*60
$GPGLL,3715.2199,N,12703.2981,E,054513.000,A,A*59
$GPGSA,A,3,07,11,19,24,28,,,,,,,,,1.6,*36
$GPVTG,130.1,T,,M,0.0,N,0.0,K,A*0E
$GPGSV,3,1,10,01,00,000,40,07,39,219,35,08,48,259,36,11,82,054,35*7C
$GPGSV,3,2,10,19,37,058,31,24,78,150,37,28,33,313,34,03,11,081,2*47
$GPGSV,3,3,10,17,08,268,30,22,07,042,25*7F
$GPGGA,054514.000,3715.2199,N,12703.2981,E,1,05,1.6,28.3,M,19.9,M,,*61
$GPRMC,054514.000,A,3715.2199,N,12703.2981,E,0.0,130.1,150911,,,A*67
$GPGLL,3715.2199,N,12703.2981,E,054514.000,A,A*5E
$GPGSA,A,3,07,11,19,24,28,,,,,,,,,1.6,*36
$GPVTG,130.1,T,,M,0.0,N,0.0,K,A*0E
$GPGSV,3,1,10,01,00,000,40,07,39,219,36,08,48,259,36,11,82,054,35*7F
$GPGSV,3,2,10,19,37,058,32,24,78,150,37,28,33,313,35,03,11,081,2*45
$GPGSV,3,3,10,17,08,268,30,22,07,042,26*7C
$GPGGA,054515.000,3715.2199,N,12703.2981,E,1,05,1.6,28.3,M,19.9,M,,*60
$GPRMC,054515.000,A,3715.2199,N,12703.2981,E,0.0,130.1,150911,,,A*66
$GPGLL,3715.2199,N,12703.2981,E,054515.000,A,A*5F
$GPGSA,A,3,07,11,19,24,28,,,,,,,,,1.6,*36
$GPVTG,130.1,T,,M,0.0,N,0.0,K,A*0E
$GPGSV,3,1,10,01,00,000,40,07,39,219,36,08,48,259,36,11,82,054,35*7F
$GPGSV,3,2,10,19,37,058,33,24,78,150,37,28,33,313,35,03,11,081,2*44
$GPGSV,3,3,10,17,08,268,30,22,07,042,27*7D
$GPGGA,054516.000,3715.2199,N,12703.2981,E,1,05,1.6,28.3,M,19.9,M,,*63
$GPRMC,054516.000,A,3715.2199,N,12703.2981,E,0.0,130.1,150911,,,A*65
$GPGLL,3715.2199,N,12703.2981,E,054516.000,A,A*5C
$GPGSA,A,3,07,11,19,24,28,,,,,,,,,1.6,*36
$GPVTG,130.1,T,,M,0.0,N,0.0,K,A*0E
$GPGSV,3,1,10,01,00,000,40,07,39,219,37,08,48,259,36,11,82,054,35*7E
$GPGSV,3,2,10,19,37,058,33,24,78,150,36,28,33,313,35,03,11,081,2*45
$GPGSV,3,3,10,17,08,268,31,22,07,042,27*7C
$GPGGA,054517.000,3715.2199,N,12703.2981,E,1,05,1.6,28.3,M,19.9,M,,*62
$GPRMC,054517.000,A,3715.2199,N,12703.2981,E,0.0,130.1,150911,,,A*64
$GPGLL,3715.2199,N,12703.2981,E,054517.000,A,A*5D
$GPGSA,A,3,07,11,19,24,28,,,,,,,,,1.6,*36
$GPVTG,130.1,T,,M,0.0,N,0.0,K,A*0E
$GPGSV,3,1,10,01,00,000,40,07,39,219,37,08,48,259,36,11,82,054,35*7E
$GPGSV,3,2,10,19,37,058,33,24,78,150,36,28,33,313,35,03,11,081,2*45
$GPGSV,3,3,10,17,08,268,31,22,07,042,27*7C
$GPGGA,054518.000,3715.2199,N,12703.2981,E,1,05,1.6,28.3,M,19.9,M,,*6D
$GPRMC,054518.000,A,3715.2199,N,12703.2981,E,0.0,130.1,150911,,,A*6B
$GPGLL,3715.2199,N,12703.2981,E,054518.000,A,A*52
$GPGSA,A,3,07,11,19,24,28,,,,,,,,,1.6,*36
$GPVTG,130.1,T,,M,0.0,N,0.0,K,A*0E
$GPGSV,3,1,10,01,00,000,40,07,39,219,37,08,48,259,35,11,82,054,35*7D
$GPGSV,3,2,10,19,37,058,33,24,78,150,36,28,33,313,35,03,11,081,2*45
$GPGSV,3,3,10,17,08,268,31,22,07,042,27*7C
$GPGGA,054519.000,3715.2199,N,12703.2981,E,1,05,1.6,28.3,M,19.9,M,,*6C
$GPRMC,054519.000,A,3715.2199,N,12703.2981,E,0.0,130.1,150911,,,A*6A
$GPGLL,3715.2199,N,12703.2981,E,054519.000,A,A*53
$GPGSA,A,3,07,11,19,24,28,,,,,,,,,1.6,*36
$GPVTG,130.1,T,,M,0.0,N,0.0,K,A*0E
$GPGSV,3,1,10,01,00,000,40,07,39,219,37,08,48,259,35,11,82,054,35*7D
$GPGSV,3,2,10,19,37,058,33,24,78,150,36,28,33,313,35,03,11,081,2*45
$GPGSV,3,3,10,17,08,268,31,22,07,042,27*7C
$GPGGA,054520.000,3715.2199,N,12703.2981,E,1,05,1.6,28.3,M,19.9,M,,*66
$GPRMC,054520.000,A,3715.2199,N,12703.2981,E,0.0,130.1,150911,,,A*60
$GPGLL,3715.2199,N,12703.2981,E,054520.000,A,A*59
$GPGSA,A,3,07,11,19,24,28,,,,,,,,,1.6,*36
$GPVTG,130.1,T,,M,0.0,N,0.0,K,A*0E
$GPGSV,3,1,10,01,00,000,40,07,39,219,37,08,48,259,35,11,82,054,35*7D
$GPGSV,3,2,10,19,37,058,34,24,78,150,36,28,33,313,35,03,11,081,2*42
$GPGSV,3,3,10,17,08,268,31,22,07,042,27*7C
