$GPGSV,3,1,10,22,16,277,26,18,09,246,,17,27,047,27,15,15,168,20*73
$GPGSV,3,2,10,12,57,239,34,30,23,243,14,14,25,313,,26,61,227,34*75
$GPGSV,3,3,10,09,80,099,35,27,63,109,36*72
$GPGSV,3,1,10,22,16,277,26,18,09,246,,17,28,049,21,15,15,168,20*74
$GPGSV,3,2,10,12,57,239,35,30,23,243,14,14,25,313,31,26,61,230,32*76
$GPGSV,3,3,10,09,80,099,36,27,63,109,36*71
$GPGGA,144223.0,5114.617879,N,00644.514820,E,1,05,4.8,97.5,M,,,,*34
$GPRMC,144223.0,A,5114.617879,N,00644.514820,E,15.0,144.6,070709,,,A*5D
$GPGSA,A,3,09,12,17,26,27,,,,,,,,8.4,4.8,6.9*30
$GPVTG,144.6,T,,M,15.0,N,27.8,K*6E
$GPGSV,3,1,10,22,16,277,21,18,09,246,,17,28,049,26,15,15,168,20*74
$GPGSV,3,2,10,12,57,239,35,30,23,243,14,14,25,313,31,26,61,230,34*70
$GPGSV,3,3,10,09,80,099,35,27,63,109,36*72
$GPGGA,144224.0,5114.607848,N,00644.519079,E,1,05,4.2,113.0,M,,,,*0B
$GPRMC,144224.0,A,5114.607848,N,00644.519079,E,17.2,148.9,070709,,,A*53
$GPGSA,A,3,09,12,17,26,27,,,,,,,,6.8,4.2,5.3*31
$GPVTG,148.9,T,,M,17.2,N,31.9,K*6B
$GPGSV,3,1,10,22,15,277,21,18,09,246,,17,27,047,23,15,15,168,21*72
$GPGSV,3,2,10,12,57,239,34,30,23,243,14,14,25,313,31,26,61,227,34*77
$GPGSV,3,3,10,09,80,099,34,27,63,109,35*70
$GPGGA,144225.0,5114.604119,N,00644.523052,E,1,05,4.6,110.0,M,,,,*03
$GPRMC,144225.0,A,5114.604119,N,00644.523052,E,18.7,151.4,070709,,,A*53
$GPGSA,A,3,09,12,17,26,27,,,,,,,,7.5,4.6,6.0*39
$GPVTG,151.4,T,,M,18.7,N,34.7,K*6F
$GPGSV,3,1,10,22,15,277,21,18,09,246,,17,27,047,24,15,15,168,28*7C
$GPGSV,3,2,10,12,57,239,34,30,23,243,14,14,25,313,32,26,61,227,34*74
$GPGSV,3,3,10,09,80,099,34,27,63,111,35*79
$GPGGA,144226.0,5114.599824,N,00644.526874,E,1,05,4.6,108.0,M,,,,*00
$GPRMC,144226.0,A,5114.599824,N,00644.526874,E,20.0,153.7,070709,,,A*54
$GPGSA,A,3,09,12,17,26,27,,,,,,,,7.6,4.6,6.0*3A
$GPVTG,153.7,T,,M,20.0,N,37.0,K*66
$GPGSV,3,1,10,22,15,277,21,18,09,246,,17,27,047,25,15,15,168,28*7D
$GPGSV,3,2,10,12,57,239,34,30,23,243,14,14,25,313,31,26,61,227,34*77
$GPGSV,3,3,10,09,80,099,34,27,63,111,35*79
$GPGGA,144227.0,5114.594669,N,00644.530847,E,1,05,4.3,108.0,M,,,,*09
$GPRMC,144227.0,A,5114.594669,N,00644.530847,E,20.9,155.3,070709,,,A*53
$GPGSA,A,3,09,12,17,26,27,,,,,,,,6.9,4.3,5.4*36
$GPVTG,155.3,T,,M,20.9,N,38.7,K*65
$GPGSV,3,1,10,22,15,277,21,18,09,246,,17,27,047,27,15,15,168,29*7E
$GPGSV,3,2,10,12,57,239,34,30,23,243,14,14,25,313,30,26,61,227,35*77
$GPGSV,3,3,10,09,80,099,34,27,63,111,35*79
$GPGGA,144228.0,5114.588146,N,00644.534896,E,1,05,4.3,110.5,M,,,,*05
$GPRMC,144228.0,A,5114.588146,N,00644.534896,E,21.4,156.6,070709,,,A*59
$GPGSA,A,3,09,12,17,26,27,,,,,,,,6.8,4.3,5.2*31
$GPVTG,156.6,T,,M,21.4,N,39.6,K*6F
$GPGSV,3,1,10,22,15,277,21,18,09,246,,17,27,047,25,15,15,168,29*7C
$GPGSV,3,2,10,12,57,239,31,30,23,243,14,14,25,313,31,26,61,227,33*75
$GPGSV,3,3,10,09,80,099,33,27,63,111,34*7F
$GPGGA,144229.0,5114.582383,N,00644.538738,E,1,05,4.2,110.0,M,,,,*06
$GPRMC,144229.0,A,5114.582383,N,00644.538738,E,21.9,156.1,070709,,,A*54
$GPGSA,A,3,09,12,17,26,27,,,,,,,,6.8,4.2,5.3*31
$GPVTG,156.1,T,,M,21.9,N,40.6,K*6B
$GPGSV,3,1,10,22,15,277,21,18,09,246,,17,27,047,22,15,15,168,29*7B
$GPGSV,3,2,10,12,57,239,27,30,23,243,14,14,25,313,31,26,61,227,32*73
$GPGSV,3,3,10,09,80,099,34,27,63,111,34*78
$GPGGA,144230.0,5114.576707,N,00644.542671,E,1,05,3.9,109.5,M,,,,*0D
$GPRMC,144230.0,A,5114.576707,N,00644.542671,E,22.5,158.7,070709,,,A*59
$GPGSA,A,3,09,12,17,26,27,,,,,,,,6.6,3.9,5.3*33
$GPVTG,158.7,T,,M,22.5,N,41.7,K*6C
$GPGSV,3,1,10,22,15,277,21,18,09,246,,17,27,047,26,15,15,168,28*7E
$GPGSV,3,2,10,12,57,239,34,30,23,243,14,14,25,313,31,26,61,227,35*76
$GPGSV,3,3,10,09,80,099,35,27,63,111,34*79
$GPGGA,144231.0,5114.571082,N,00644.546574,E,1,05,3.8,107.0,M,,,,*09
$GPRMC,144231.0,A,5114.571082,N,00644.546574,E,23.9,160.5,070709,,,A*53
$GPGSA,A,3,09,12,17,26,27,,,,,,,,6.0,3.8,4.6*30
$GPVTG,160.5,T,,M,23.9,N,44.3,K*69
$GPGSV,3,1,10,22,15,277,21,18,09,246,,17,27,047,31,15,15,168,26*76
$GPGSV,3,2,10,12,57,239,34,30,23,243,14,14,25,313,23,26,61,227,34*74
$GPGSV,3,3,10,09,80,099,35,27,63,111,34*79
$GPGGA,144232.0,5114.565389,N,00644.550039,E,1,05,3.9,104.0,M,,,,*0E
$GPRMC,144232.0,A,5114.565389,N,00644.550039,E,24.6,162.3,070709,,,A*5A
$GPGSA,A,3,09,12,17,26,27,,,,,,,,6.1,3.9,4.6*30
$GPVTG,162.3,T,,M,24.6,N,45.6,K*61
$GPGSV,3,1,10,22,15,277,21,18,09,246,,17,27,047,32,15,15,168,29*7A
$GPGSV,3,2,10,12,57,239,34,30,23,243,14,14,25,313,22,26,61,227,35*74
$GPGSV,3,3,10,09,80,099,34,27,63,111,33*7F
$GPGGA,144233.0,5114.559802,N,00644.553192,E,1,05,4.3,101.0,M,,,,*03
$GPRMC,144233.0,A,5114.559802,N,00644.553192,E,24.3,163.4,070709,,,A*5C
$GPGSA,A,3,09,12,17,26,27,,,,,,,,6.3,4.3,4.6*3F
$GPVTG,163.4,T,,M,24.3,N,45.0,K*64
$GPGSV,3,1,10,22,15,277,21,18,09,246,,17,27,047,33,15,15,168,31*72
$GPGSV,3,2,10,12,57,239,33,30,23,243,14,14,25,313,27,26,61,227,34*77
$GPGSV,3,3,10,09,80,099,34,27,63,111,33*7F
$GPGGA,144234.0,5114.553986,N,00644.556194,E,1,05,4.3,98.0,M,,,,*31
$GPRMC,144234.0,A,5114.553986,N,00644.556194,E,23.6,164.1,070709,,,A*5F
$GPGSA,A,3,09,12,17,26,27,,,,,,,,6.4,4.3,4.7*39
$GPVTG,164.1,T,,M,23.6,N,43.6,K*64
$GPGSV,3,1,10,22,15,277,21,18,09,246,,17,27,047,30,15,15,168,31*71
$GPGSV,3,2,10,12,57,239,34,30,23,243,14,14,25,313,24,26,61,227,34*73
$GPGSV,3,3,10,09,80,099,34,27,63,111,33*7F
$GPGGA,144235.0,5114.547853,N,00644.559011,E,1,05,4.4,97.5,M,,,,*32
$GPRMC,144235.0,A,5114.547853,N,00644.559011,E,24.0,164.6,070709,,,A*57
$GPGSA,A,3,09,12,17,26,27,,,,,,,,6.6,4.4,4.8*33
$GPVTG,164.6,T,,M,24.0,N,44.4,K*67
$GPGSV,3,1,10,22,15,277,21,18,09,246,,17,27,047,26,15,15,168,31*76
$GPGSV,3,2,10,12,57,239,34,30,23,243,14,14,25,313,24,26,61,227,33*74
$GPGSV,3,3,10,09,80,099,34,27,63,111,33*7F
$GPGGA,144236.0,5114.541569,N,00644.561857,E,1,05,4.4,97.0,M,,,,*37
$GPRMC,144236.0,A,5114.541569,N,00644.561857,E,23.5,164.4,070709,,,A*57
$GPGSA,A,3,09,12,17,26,27,,,,,,,,6.8,4.4,5.2*36
$GPVTG,164.4,T,,M,23.5,N,43.6,K*62
$GPGSV,3,1,10,22,15,277,21,18,09,246,,17,27,047,32,15,15,168,31*73
$GPGSV,3,2,10,12,57,239,33,30,23,243,14,14,25,313,24,26,61,227,33*73
$GPGSV,3,3,10,09,80,099,34,27,63,111,33*7F
$GPGGA,144237.0,5114.535079,N,00644.564799,E,1,05,4.4,96.0,M,,,,*38
$GPRMC,144237.0,A,5114.535079,N,00644.564799,E,23.8,164.3,070709,,,A*53
$GPGSA,A,3,09,12,17,26,27,,,,,,,,6.7,4.4,5.1*3A
$GPVTG,164.3,T,,M,23.8,N,44.1,K*68
$GPGSV,3,1,10,22,15,277,21,18,09,246,24,17,27,047,32,15,15,168,32*76
$GPGSV,3,2,10,12,57,239,34,30,23,243,14,14,25,313,23,26,61,227,33*73
$GPGSV,3,3,10,09,80,099,34,27,63,111,33*7F
$GPGGA,144238.0,5114.528332,N,00644.567771,E,1,05,4.4,95.0,M,,,,*31
$GPRMC,144238.0,A,5114.528332,N,00644.567771,E,24.5,164.5,070709,,,A*55
$GPGSA,A,3,09,12,17,26,27,,,,,,,,6.7,4.4,5.0*3B
$GPVTG,164.5,T,,M,24.5,N,45.3,K*67
$GPGSV,3,1,10,22,15,277,21,18,09,244,21,17,27,047,33,15,15,168,31*73
$GPGSV,3,2,10,12,57,239,34,30,23,243,,14,25,313,23,26,61,227,33*76
$GPGSV,3,3,10,09,80,099,34,27,63,111,33*7F
$GPGGA,144239.0,5114.521568,N,00644.570688,E,1,05,4.5,96.0,M,,,,*33
$GPRMC,144239.0,A,5114.521568,N,00644.570688,E,24.8,165.0,070709,,,A*5C
$GPGSA,A,3,09,12,17,26,27,,,,,,,,6.8,4.5,5.1*34
$GPVTG,165.0,T,,M,24.8,N,45.8,K*65
$GPGSV,3,1,10,22,15,277,21,18,09,244,21,17,27,047,32,15,15,168,30*73
$GPGSV,3,2,10,12,57,239,34,30,23,243,17,14,25,313,23,26,61,227,33*70
$GPGSV,3,3,10,09,80,099,34,27,63,111,33*7F
$GPGGA,144240.0,5114.514688,N,00644.573565,E,1,05,4.5,95.5,M,,,,*33
$GPRMC,144240.0,A,5114.514688,N,00644.573565,E,25.1,165.6,070709,,,A*54
$GPGSA,A,3,09,12,17,26,27,,,,,,,,6.8,4.5,5.1*34
$GPVTG,165.6,T,,M,25.1,N,46.5,K*65
$GPGSV,3,1,10,22,15,277,21,18,09,244,21,17,27,047,33,15,15,168,30*72
$GPGSV,3,2,10,12,57,239,34,30,23,243,21,14,25,313,20,26,61,227,33*76
$GPGSV,3,3,10,09,80,099,34,27,63,111,34*78
$GPGGA,144241.0,5114.507959,N,00644.576306,E,1,05,4.5,95.5,M,,,,*35
$GPRMC,144241.0,A,5114.507959,N,00644.576306,E,25.0,166.4,070709,,,A*52
$GPGSA,A,3,09,12,17,26,27,,,,,,,,6.9,4.5,5.1*35
$GPVTG,166.4,T,,M,25.0,N,46.4,K*64
$GPGSV,3,1,10,22,15,277,21,18,09,244,21,17,27,047,32,15,15,168,33*70
$GPGSV,3,2,10,12,57,239,35,30,23,243,27,14,25,313,21,26,61,227,33*70
$GPGSV,3,3,10,09,80,099,34,27,63,111,34*78
$GPGGA,144242.0,5114.501260,N,00644.578805,E,1,05,4.6,95.0,M,,,,*31
$GPRMC,144242.0,A,5114.501260,N,00644.578805,E,24.1,166.1,070709,,,A*55
$GPGSA,A,3,09,12,17,26,27,,,,,,,,7.0,4.6,5.2*3D
$GPVTG,166.1,T,,M,24.1,N,44.6,K*61
$GPGSV,3,1,10,22,15,277,21,18,09,244,21,17,27,047,32,15,15,168,32*71
$GPGSV,3,2,10,12,57,239,35,30,23,243,28,14,25,313,23,26,61,227,33*7D
$GPGSV,3,3,10,09,80,099,34,27,63,111,33*7F
$GPGGA,144243.0,5114.495336,N,00644.581079,E,1,05,4.6,94.5,M,,,,*3F
$GPRMC,144243.0,A,5114.495336,N,00644.581079,E,21.4,165.8,070709,,,A*55
$GPGSA,A,3,09,12,17,26,27,,,,,,,,6.9,4.6,5.1*36
$GPVTG,165.8,T,,M,21.4,N,39.7,K*60
$GPGSV,3,1,10,22,15,277,21,18,09,244,21,17,27,047,33,15,15,168,33*71
$GPGSV,3,2,10,12,57,239,28,30,23,243,23,14,25,313,29,26,61,227,29*7B
$GPGSV,3,3,10,09,80,099,33,27,63,111,34*7F
$GPGGA,144244.0,5114.490606,N,00644.582834,E,1,05,3.9,94.0,M,,,,*34
$GPRMC,144244.0,A,5114.490606,N,00644.582834,E,17.6,166.7,070709,,,A*58
$GPGSA,A,3,09,12,17,26,27,,,,,,,,5.9,3.9,4.4*39
$GPVTG,166.7,T,,M,17.6,N,32.5,K*62
$GPGSV,3,1,10,22,15,277,21,18,09,244,21,17,26,047,32,15,15,168,33*71
$GPGSV,3,2,10,12,57,239,27,30,23,243,24,14,25,313,29,26,61,227,26*7C
$GPGSV,3,3,10,09,80,099,33,27,63,111,33*78
$GPGGA,144245.0,5114.486522,N,00644.584292,E,1,05,3.8,93.5,M,,,,*34
$GPRMC,144245.0,A,5114.486522,N,00644.584292,E,14.4,167.0,070709,,,A*5C
$GPGSA,A,3,09,12,17,26,27,,,,,,,,5.9,3.8,4.5*39
$GPVTG,167.0,T,,M,14.4,N,26.7,K*62
$GPGSV,3,1,10,22,15,277,21,18,09,244,21,17,26,047,33,15,15,168,31*72
$GPGSV,3,2,10,12,57,239,33,30,23,243,27,14,25,313,28,26,61,227,34*78
$GPGSV,3,3,10,09,80,099,33,27,63,111,34*7F
$GPGGA,144246.0,5114.483377,N,00644.585394,E,1,05,3.8,93.0,M,,,,*37
$GPRMC,144246.0,A,5114.483377,N,00644.585394,E,10.7,164.5,070709,,,A*5B
$GPGSA,A,3,09,12,17,26,27,,,,,,,,5.9,3.8,4.5*39
$GPVTG,164.5,T,,M,10.7,N,19.7,K*6F
$GPGSV,3,1,10,22,15,277,21,18,09,244,21,17,26,047,32,15,15,168,32*70
$GPGSV,3,2,10,12,57,239,34,30,23,243,27,14,25,313,24,26,61,227,34*73
$GPGSV,3,3,10,09,80,099,33,27,63,111,33*78
$GPGGA,144247.0,5114.481503,N,00644.586148,E,1,05,3.9,93.0,M,,,,*30
$GPRMC,144247.0,A,5114.481503,N,00644.586148,E,6.3,163.4,070709,,,A*68
$GPGSA,A,3,09,12,17,26,27,,,,,,,,6.0,3.9,4.5*32
$GPVTG,163.4,T,,M,6.3,N,11.7,K*52
$GPGSV,3,1,10,22,15,277,21,18,09,244,21,17,26,047,33,15,15,168,31*72
$GPGSV,3,2,10,12,57,239,35,30,23,243,31,14,25,313,22,26,61,227,33*74
$GPGSV,3,3,10,09,80,099,33,27,63,111,33*78
$GPGGA,144248.0,5114.480246,N,00644.586862,E,1,05,4.0,92.0,M,,,,*36
$GPRMC,144248.0,A,5114.480246,N,00644.586862,E,3.6,162.8,070709,,,A*6C
$GPGSA,A,3,09,12,17,26,27,,,,,,,,6.1,4.0,4.6*3E
$GPVTG,162.8,T,,M,3.6,N,6.7,K*69
$GPGSV,3,1,10,22,15,277,21,18,09,244,21,17,26,047,33,15,15,168,32*71
$GPGSV,3,2,10,12,57,239,34,30,23,243,31,14,25,313,26,26,61,227,34*76
$GPGSV,3,3,10,09,80,099,33,27,63,111,33*78
$GPGGA,144249.0,5114.479421,N,00644.587164,E,1,05,4.1,92.0,M,,,,*39
$GPRMC,144249.0,A,5114.479421,N,00644.587164,E,2.3,163.7,070709,,,A*68
$GPGSA,A,3,09,12,17,26,27,,,,,,,,6.3,4.1,4.7*3C
$GPVTG,163.7,T,,M,2.3,N,4.3,K*65
$GPGSV,3,1,10,22,15,277,21,18,09,244,21,17,26,047,33,15,15,168,32*71
$GPGSV,3,2,10,12,57,239,34,30,23,243,31,14,25,313,25,26,61,227,34*75
$GPGSV,3,3,10,09,80,099,33,27,63,111,34*7F
$GPGGA,144250.0,5114.479245,N,00644.587350,E,1,05,4.3,92.0,M,,,,*32
$GPRMC,144250.0,A,5114.479245,N,00644.587350,E,,,070709,,,A*63
$GPGSA,A,3,09,12,17,26,27,,,,,,,,6.5,4.3,4.8*37
$GPVTG,,T,,M,0.0,N,0.0,K*4E
$GPGSV,3,1,10,22,15,277,21,18,09,244,21,17,26,047,33,15,15,168,33*70
$GPGSV,3,2,10,12,57,239,35,30,23,243,32,14,25,313,25,26,61,227,33*70
$GPGSV,3,3,10,09,80,099,34,27,63,111,33*7F
$GPGGA,144251.0,5114.478986,N,00644.587606,E,1,05,4.4,92.0,M,,,,*37
$GPRMC,144251.0,A,5114.478986,N,00644.587606,E,1.6,169.5,070709,,,A*6D
$GPGSA,A,3,09,12,17,26,27,,,,,,,,6.6,4.4,4.9*32
$GPVTG,169.5,T,,M,1.6,N,3.0,K*6F
$GPGSV,3,1,10,22,15,277,21,18,09,244,21,17,26,047,32,15,15,168,31*73
$GPGSV,3,2,10,12,57,239,34,30,23,243,31,14,25,313,25,26,61,227,33*72
$GPGSV,3,3,10,09,80,099,33,27,63,111,33*78
$GPGGA,144252.0,5114.478327,N,00644.587782,E,1,05,4.6,92.0,M,,,,*3A
$GPRMC,144252.0,A,5114.478327,N,00644.587782,E,3.4,171.5,070709,,,A*6B
$GPGSA,A,3,09,12,17,26,27,,,,,,,,7.1,4.6,5.4*3A
$GPVTG,171.5,T,,M,3.4,N,6.3,K*60
$GPGSV,3,1,10,22,15,277,21,18,09,244,21,17,26,047,32,15,15,168,31*73
$GPGSV,3,2,10,12,57,239,34,30,23,243,30,14,26,313,25,26,61,227,33*70
$GPGSV,3,3,10,09,80,099,32,27,63,111,33*79
$GPGGA,144253.0,5114.476826,N,00644.588230,E,1,05,4.9,92.5,M,,,,*36
$GPRMC,144253.0,A,5114.476826,N,00644.588230,E,5.7,167.6,070709,,,A*6C
$GPGSA,A,3,09,12,17,26,27,,,,,,,,7.7,4.9,6.0*34
$GPVTG,167.6,T,,M,5.7,N,10.5,K*50
$GPGSV,3,1,10,22,15,277,21,18,09,244,21,17,26,047,31,15,15,168,30*71
$GPGSV,3,2,10,12,57,239,35,30,23,243,32,14,26,313,25,26,61,227,33*73
$GPGSV,3,3,10,09,80,101,32,27,63,111,34*7E
$GPGGA,144254.0,5114.474825,N,00644.589015,E,1,05,4.8,92.5,M,,,,*35
$GPRMC,144254.0,A,5114.474825,N,00644.589015,E,7.8,167.9,070709,,,A*6C
$GPGSA,A,3,09,12,17,26,27,,,,,,,,7.6,4.8,5.9*3E
$GPVTG,167.9,T,,M,7.8,N,14.4,K*57
$GPGSV,3,1,10,22,15,277,21,18,09,244,21,17,26,047,29,15,15,168,33*7B
$GPGSV,3,2,10,12,57,239,35,30,23,243,32,14,26,313,25,26,61,227,34*74
$GPGSV,3,3,10,09,80,101,32,27,63,111,33*79
$GPGGA,144255.0,5114.472433,N,00644.589970,E,1,05,4.7,92.5,M,,,,*3C
$GPRMC,144255.0,A,5114.472433,N,00644.589970,E,8.8,167.9,070709,,,A*65
$GPGSA,A,3,09,12,17,26,27,,,,,,,,7.6,4.7,5.9*31
$GPVTG,167.9,T,,M,8.8,N,16.2,K*5C
$GPGSV,3,1,10,22,15,277,21,18,09,244,21,17,26,047,31,15,15,168,32*73
$GPGSV,3,2,10,12,57,239,34,30,23,243,31,14,26,313,25,26,61,227,33*71
$GPGSV,3,3,10,09,80,101,31,27,63,111,33*7A
$GPGGA,144256.0,5114.469662,N,00644.590991,E,1,05,4.8,92.5,M,,,,*3B
$GPRMC,144256.0,A,5114.469662,N,00644.590991,E,10.7,167.8,070709,,,A*5A
$GPGSA,A,3,09,12,17,26,27,,,,,,,,7.7,4.8,6.0*35
$GPVTG,167.8,T,,M,10.7,N,19.8,K*6E
$GPGSV,3,1,10,22,15,277,21,18,09,244,21,17,26,047,33,15,15,168,35*76
$GPGSV,3,2,10,12,57,239,30,30,23,243,29,14,26,313,25,26,61,227,33*7C
$GPGSV,3,3,10,09,80,101,31,27,63,111,34*7D
$GPGGA,144257.0,5114.466255,N,00644.592278,E,1,05,4.4,93.0,M,,,,*33
$GPRMC,144257.0,A,5114.466255,N,00644.592278,E,12.4,168.2,070709,,,A*5E
$GPGSA,A,3,09,12,17,26,27,,,,,,,,7.1,4.4,5.5*39
$GPVTG,168.2,T,,M,12.4,N,22.9,K*63
$GPGSV,3,1,10,22,15,277,,18,09,244,21,17,26,047,32,15,15,168,35*74
$GPGSV,3,2,10,12,57,239,30,30,23,243,25,14,26,313,25,26,61,227,29*7B
$GPGSV,3,3,10,09,80,101,32,27,63,111,33*79
$GPGGA,144258.0,5114.462408,N,00644.593717,E,1,05,4.1,92.5,M,,,,*3A
$GPRMC,144258.0,A,5114.462408,N,00644.593717,E,14.2,168.2,070709,,,A*56
$GPGSA,A,3,09,12,17,26,27,,,,,,,,6.5,4.1,5.0*3C
$GPVTG,168.2,T,,M,14.2,N,26.4,K*6A
$GPGSV,3,1,10,22,15,277,,18,09,244,21,17,26,047,32,15,15,168,34*75
$GPGSV,3,2,10,12,57,239,33,30,23,243,28,14,26,313,22,26,61,227,34*7E
$GPGSV,3,3,10,09,80,101,32,27,63,111,33*79
$GPGGA,144259.0,5114.456513,N,00644.596116,E,1,06,1.9,89.0,M,,,,*34
$GPRMC,144259.0,A,5114.456513,N,00644.596116,E,15.8,167.3,070709,,,A*5C
$GPGSA,A,3,09,12,15,17,26,27,,,,,,,2.6,1.9,1.8*3E
$GPVTG,167.3,T,,M,15.8,N,29.3,K*67
$GPGSV,3,1,10,22,15,277,,18,09,244,,17,26,047,31,15,15,168,34*75
$GPGSV,3,2,10,12,57,239,33,30,23,243,31,14,26,313,22,26,61,227,35*77
$GPGSV,3,3,10,09,80,101,31,27,63,111,33*7A
$GPGGA,144300.0,5114.451250,N,00644.598142,E,1,06,1.9,87.0,M,,,,*3F
$GPRMC,144300.0,A,5114.451250,N,00644.598142,E,16.1,167.0,070709,,,A*50
$GPGSA,A,3,09,12,15,17,26,27,,,,,,,2.7,1.9,1.9*3E
$GPVTG,167.0,T,,M,16.1,N,29.8,K*65
$GPGSV,3,1,10,22,15,277,,18,09,244,,17,26,047,32,15,15,168,34*76
$GPGSV,3,2,10,12,57,239,33,30,23,243,31,14,26,313,21,26,61,227,35*74
$GPGSV,3,3,10,09,80,101,31,27,63,111,33*7A
$GPGGA,144301.0,5114.446780,N,00644.599757,E,1,06,1.9,86.5,M,,,,*37
$GPRMC,144301.0,A,5114.446780,N,00644.599757,E,15.9,167.3,070709,,,A*54
$GPGSA,A,3,09,12,15,17,26,27,,,,,,,2.7,1.9,1.9*3E
$GPVTG,167.3,T,,M,15.9,N,29.5,K*60
$GPGSV,3,1,10,22,15,277,26,18,09,244,,17,26,047,31,15,15,168,33*76
$GPGSV,3,2,10,12,57,239,34,30,23,243,31,14,26,313,21,26,61,227,35*73
$GPGSV,3,3,10,09,80,101,32,27,63,111,33*79
$GPGGA,144302.0,5114.442248,N,00644.601522,E,1,06,1.8,86.5,M,,,,*32
$GPRMC,144302.0,A,5114.442248,N,00644.601522,E,17.5,167.2,070709,,,A*5F
$GPGSA,A,3,09,12,15,17,26,27,,,,,,,2.7,1.8,1.9*3F
$GPVTG,167.2,T,,M,17.5,N,32.4,K*64
$GPGSV,3,1,10,22,15,277,23,18,09,244,,17,26,047,32,15,15,168,31*72
$GPGSV,3,2,10,12,57,239,34,30,23,243,30,14,26,313,21,26,61,227,35*72
$GPGSV,3,3,10,09,80,101,32,27,63,111,33*79
$GPGGA,144303.0,5114.437036,N,00644.603730,E,1,06,1.8,86.0,M,,,,*3C
$GPRMC,144303.0,A,5114.437036,N,00644.603730,E,19.1,165.6,070709,,,A*58
$GPGSA,A,3,09,12,15,17,26,27,,,,,,,2.7,1.8,2.0*35
$GPVTG,165.6,T,,M,19.1,N,35.3,K*68
$GPGSV,3,1,10,22,15,277,26,18,09,244,,17,26,047,33,15,15,168,34*73
$GPGSV,3,2,10,12,57,239,34,30,23,243,25,14,26,313,21,26,61,227,35*76
$GPGSV,3,3,10,09,80,101,33,27,63,111,34*7F
$GPGGA,144304.0,5114.431810,N,00644.606098,E,1,06,1.8,86.5,M,,,,*34
$GPRMC,144304.0,A,5114.431810,N,00644.606098,E,20.0,164.1,070709,,,A*58
$GPGSA,A,3,09,12,15,17,26,27,,,,,,,2.7,1.8,2.0*35
$GPVTG,164.1,T,,M,20.0,N,37.0,K*64
$GPGSV,3,1,10,22,15,277,26,18,09,244,,17,26,047,33,15,15,168,34*73
$GPGSV,3,2,10,12,57,239,33,30,23,243,22,14,26,313,21,26,61,227,34*77
$GPGSV,3,3,10,09,80,101,33,27,63,111,33*78
$GPGGA,144305.0,5114.426137,N,00644.608588,E,1,06,1.8,87.0,M,,,,*31
$GPRMC,144305.0,A,5114.426137,N,00644.608588,E,21.3,164.2,070709,,,A*58
$GPGSA,A,3,09,12,15,17,26,27,,,,,,,2.7,1.8,2.0*35
$GPVTG,164.2,T,,M,21.3,N,39.4,K*6F
$GPGSV,3,1,10,22,15,277,26,18,09,244,,17,26,047,33,15,15,168,34*73
$GPGSV,3,2,10,12,57,239,31,30,23,243,20,14,26,313,21,26,61,227,34*77
$GPGSV,3,3,10,09,80,101,32,27,63,111,33*79
$GPGGA,144306.0,5114.420387,N,00644.611173,E,1,06,1.8,87.0,M,,,,*35
$GPRMC,144306.0,A,5114.420387,N,00644.611173,E,21.7,165.9,070709,,,A*52
$GPGSA,A,3,09,12,15,17,26,27,,,,,,,2.7,1.8,1.9*3F
$GPVTG,165.9,T,,M,21.7,N,40.2,K*69
$GPGSV,3,1,10,22,15,277,26,18,09,244,,17,26,047,28,15,15,168,34*79
$GPGSV,3,2,10,12,57,239,35,30,23,243,31,14,26,313,21,26,61,227,34*73
$GPGSV,3,3,10,09,80,101,33,27,63,111,34*7F
$GPGGA,144307.0,5114.414480,N,00644.613532,E,1,06,2.0,86.5,M,,,,*3F
$GPRMC,144307.0,A,5114.414480,N,00644.613532,E,21.6,166.4,070709,,,A*58
$GPGSA,A,3,09,12,15,17,26,27,,,,,,,3.0,2.0,2.2*3A
$GPVTG,166.4,T,,M,21.6,N,40.0,K*64
$GPGSV,3,1,10,22,15,277,21,18,09,244,,17,26,047,26,15,15,168,34*70
$GPGSV,3,2,10,12,57,239,35,30,23,243,26,14,26,313,21,26,61,227,34*75
$GPGSV,3,3,10,09,80,101,33,27,63,111,34*7F
$GPGGA,144308.0,5114.408354,N,00644.615749,E,1,06,2.5,86.0,M,,,,*3B
$GPRMC,144308.0,A,5114.408354,N,00644.615749,E,22.0,167.1,070709,,,A*5D
$GPGSA,A,3,09,12,15,17,26,27,,,,,,,3.8,2.5,2.8*3D
$GPVTG,167.1,T,,M,22.0,N,40.7,K*62
$GPGSV,3,1,10,22,15,277,21,18,09,244,,17,26,047,32,15,15,168,34*75
$GPGSV,3,2,10,12,57,239,35,30,23,243,21,14,26,313,21,26,61,227,34*72
$GPGSV,3,3,10,09,80,101,33,27,63,111,34*7F
$GPGGA,144309.0,5114.402030,N,00644.618158,E,1,06,2.3,85.5,M,,,,*3A
$GPRMC,144309.0,A,5114.402030,N,00644.618158,E,23.4,166.6,070709,,,A*5F
$GPGSA,A,3,09,12,15,17,26,27,,,,,,,3.5,2.3,2.6*38
$GPVTG,166.6,T,,M,23.4,N,43.3,K*66
$GPGSV,3,1,10,22,15,277,21,18,09,244,,17,26,047,32,15,15,168,34*75
$GPGSV,3,2,10,12,57,239,33,30,23,243,23,14,26,313,21,26,61,227,35*77
$GPGSV,3,3,10,09,80,101,33,27,63,111,34*7F
$GPGGA,144310.0,5114.395467,N,00644.620753,E,1,06,2.2,85.0,M,,,,*3F
$GPRMC,144310.0,A,5114.395467,N,00644.620753,E,24.4,166.6,070709,,,A*59
$GPGSA,A,3,09,12,15,17,26,27,,,,,,,3.3,2.2,2.5*3C
$GPVTG,166.6,T,,M,24.4,N,45.2,K*66
$GPGSV,3,1,10,22,15,277,21,18,09,244,,17,26,047,31,15,15,168,33*71
$GPGSV,3,2,10,12,57,239,34,30,23,243,25,14,26,313,21,26,61,227,34*77
$GPGSV,3,3,10,09,80,101,31,27,63,111,34*7D
$GPGGA,144311.0,5114.388766,N,00644.623374,E,1,06,2.1,85.0,M,,,,*31
$GPRMC,144311.0,A,5114.388766,N,00644.623374,E,24.5,166.3,070709,,,A*50
$GPGSA,A,3,09,12,15,17,26,27,,,,,,,3.1,2.1,2.4*3C
$GPVTG,166.3,T,,M,24.5,N,45.4,K*64
$GPGSV,3,1,10,22,15,277,22,18,09,244,,17,26,047,29,15,15,168,32*7A
$GPGSV,3,2,10,12,57,239,33,30,23,243,23,14,26,313,21,26,61,227,34*76
$GPGSV,3,3,10,09,80,101,32,27,63,111,34*7E
$GPGGA,144312.0,5114.382132,N,00644.625964,E,1,06,2.0,84.5,M,,,,*37
$GPRMC,144312.0,A,5114.382132,N,00644.625964,E,24.4,166.7,070709,,,A*56
$GPGSA,A,3,09,12,15,17,26,27,,,,,,,3.0,2.0,2.2*3A
$GPVTG,166.7,T,,M,24.4,N,45.2,K*67
$GPGSV,3,1,10,22,15,277,22,18,09,244,,17,26,047,31,15,15,168,33*72
$GPGSV,3,2,10,12,57,239,33,30,23,243,21,14,26,313,21,26,61,227,34*74
$GPGSV,3,3,10,09,80,101,31,27,63,111,34*7D
$GPGGA,144313.0,5114.375668,N,00644.628418,E,1,06,1.9,84.0,M,,,,*32
$GPRMC,144313.0,A,5114.375668,N,00644.628418,E,24.0,166.8,070709,,,A*57
$GPGSA,A,3,09,12,15,17,26,27,,,,,,,2.9,1.9,2.2*38
$GPVTG,166.8,T,,M,24.0,N,44.5,K*6A
$GPGSV,3,1,10,22,15,277,22,18,09,244,,17,26,047,28,15,15,168,32*7B
$GPGSV,3,2,10,12,57,239,34,30,23,243,22,14,26,313,21,26,61,227,34*70
$GPGSV,3,3,10,09,80,101,31,27,63,111,34*7D
$GPGGA,144314.0,5114.369115,N,00644.630746,E,1,06,2.1,83.5,M,,,,*3D
$GPRMC,144314.0,A,5114.369115,N,00644.630746,E,24.5,166.9,070709,,,A*55
$GPGSA,A,3,09,12,15,17,26,27,,,,,,,3.2,2.1,2.4*3F
$GPVTG,166.9,T,,M,24.5,N,45.5,K*6F
$GPGSV,3,1,10,22,15,277,22,18,09,244,,17,26,047,30,15,15,168,32*72
$GPGSV,3,2,10,12,57,239,34,30,23,243,25,14,26,313,21,26,61,227,34*77
$GPGSV,3,3,10,09,80,101,31,27,63,111,34*7D
$GPGGA,144315.0,5114.362479,N,00644.633155,E,1,06,2.0,83.0,M,,,,*3B
$GPRMC,144315.0,A,5114.362479,N,00644.633155,E,24.4,166.9,070709,,,A*56
$GPGSA,A,3,09,12,15,17,26,27,,,,,,,3.1,2.0,2.3*3A
$GPVTG,166.9,T,,M,24.4,N,45.2,K*69
$GPGSV,3,1,10,22,15,277,22,18,09,244,,17,26,047,30,15,15,168,33*73
$GPGSV,3,2,10,12,57,239,34,30,23,243,29,14,26,313,21,26,61,227,34*7B
$GPGSV,3,3,10,09,80,101,31,27,63,111,34*7D
$GPGGA,144316.0,5114.355936,N,00644.635544,E,1,06,2.0,83.0,M,,,,*38
$GPRMC,144316.0,A,5114.355936,N,00644.635544,E,24.3,166.7,070709,,,A*5C
$GPGSA,A,3,09,12,15,17,26,27,,,,,,,3.0,2.0,2.3*3B
$GPVTG,166.7,T,,M,24.3,N,45.0,K*62
$GPGSV,3,1,10,22,15,277,22,18,09,244,,17,26,047,29,15,15,168,33*7B
$GPGSV,3,2,10,12,57,239,32,30,23,243,24,14,26,313,21,26,61,227,34*70
$GPGSV,3,3,10,09,80,101,32,27,63,111,34*7E
$GPGGA,144317.0,5114.349315,N,00644.637983,E,1,06,2.0,82.5,M,,,,*3E
$GPRMC,144317.0,A,5114.349315,N,00644.637983,E,24.7,166.3,070709,,,A*5E
$GPGSA,A,3,09,12,15,17,26,27,,,,,,,3.0,2.0,2.2*3A
$GPVTG,166.3,T,,M,24.7,N,45.8,K*6A
$GPGSV,3,1,11,22,15,277,22,18,09,244,,17,26,047,32,15,15,168,33*70
$GPGSV,3,2,11,12,57,239,34,30,23,243,25,14,26,313,21,26,61,227,34*76
$GPGSV,3,3,11,04,04,098,,09,80,101,31,27,63,111,34*4D
$GPGGA,144318.0,5114.342485,N,00644.640518,E,1,06,1.9,82.0,M,,,,*35
$GPRMC,144318.0,A,5114.342485,N,00644.640518,E,25.4,166.5,070709,,,A*5E
$GPGSA,A,3,09,12,15,17,26,27,,,,,,,2.9,1.9,2.2*38
$GPVTG,166.5,T,,M,25.4,N,47.0,K*64
$GPGSV,3,1,11,22,15,277,22,18,09,244,19,17,26,047,31,15,15,168,33*7B
$GPGSV,3,2,11,12,57,239,34,30,23,243,31,14,26,313,21,26,61,227,34*73
$GPGSV,3,3,11,04,04,098,,09,80,101,31,27,63,111,34*4D
$GPGGA,144319.0,5114.335739,N,00644.643188,E,1,06,1.9,81.5,M,,,,*38
$GPRMC,144319.0,A,5114.335739,N,00644.643188,E,25.0,166.0,070709,,,A*54
$GPGSA,A,3,09,12,15,17,26,27,,,,,,,2.9,1.9,2.1*3B
$GPVTG,166.0,T,,M,25.0,N,46.3,K*67
$GPGSV,3,1,11,22,15,277,22,18,09,244,19,17,26,047,32,15,15,168,31*7A
$GPGSV,3,2,11,12,57,239,34,30,23,243,30,14,26,313,21,26,61,227,34*72
$GPGSV,3,3,11,04,04,098,,09,80,101,31,27,63,111,34*4D
$GPGGA,144320.0,5114.329281,N,00644.645738,E,1,06,1.8,81.0,M,,,,*36
$GPRMC,144320.0,A,5114.329281,N,00644.645738,E,23.6,166.3,070709,,,A*5D
$GPGSA,A,3,09,12,15,17,26,27,,,,,,,2.8,1.8,2.1*3B
$GPVTG,166.3,T,,M,23.6,N,43.8,K*6A
$GPGSV,3,1,11,22,15,277,22,18,09,244,21,17,26,047,33,15,15,168,33*72
$GPGSV,3,2,11,12,57,239,35,30,23,243,28,14,26,313,21,26,61,227,35*7B
$GPGSV,3,3,11,04,04,098,,09,80,101,32,27,63,111,35*4F
$GPGGA,144321.0,5114.323473,N,00644.648062,E,1,06,1.8,80.5,M,,,,*37
$GPRMC,144321.0,A,5114.323473,N,00644.648062,E,20.5,166.1,070709,,,A*5A
$GPGSA,A,3,09,12,15,17,26,27,,,,,,,2.8,1.8,2.1*3B
$GPVTG,166.1,T,,M,20.5,N,38.0,K*6C
$GPGSV,3,1,11,22,15,277,22,18,09,244,20,17,26,047,30,15,15,168,33*70
$GPGSV,3,2,11,12,57,239,34,30,23,243,23,14,26,313,,26,61,227,34*73
$GPGSV,3,3,11,04,04,098,,09,80,101,32,27,63,111,34*4E
$GPGGA,144322.0,5114.318401,N,00644.649907,E,1,06,1.9,80.5,M,,,,*33
$GPRMC,144322.0,A,5114.318401,N,00644.649907,E,18.0,166.6,070709,,,A*56
$GPGSA,A,3,09,12,15,17,26,27,,,,,,,2.8,1.9,2.1*3A
$GPVTG,166.6,T,,M,18.0,N,33.4,K*6A
$GPGSV,3,1,11,22,15,277,22,18,09,244,20,17,26,047,26,15,15,168,34*70
$GPGSV,3,2,11,12,57,239,34,30,23,243,22,14,26,313,,26,61,227,34*72
$GPGSV,3,3,11,04,04,098,,09,80,101,31,27,63,111,34*4D
$GPGGA,144323.0,5114.313907,N,00644.651431,E,1,06,2.3,80.5,M,,,,*3A
$GPRMC,144323.0,A,5114.313907,N,00644.651431,E,15.7,167.9,070709,,,A*52
$GPGSA,A,3,09,12,15,17,26,27,,,,,,,3.6,2.3,2.7*3A
$GPVTG,167.9,T,,M,15.7,N,29.1,K*60
$GPGSV,3,1,11,22,15,277,22,18,09,244,23,17,26,047,31,15,15,168,34*75
$GPGSV,3,2,11,12,58,239,35,30,23,243,28,14,26,313,,26,61,227,34*76
$GPGSV,3,3,11,04,04,098,,09,80,101,32,27,63,111,34*4E
$GPGGA,144324.0,5114.309932,N,00644.652804,E,1,06,2.2,80.0,M,,,,*3D
$GPRMC,144324.0,A,5114.309932,N,00644.652804,E,13.7,167.4,070709,,,A*5A
$GPGSA,A,3,09,12,15,17,26,27,,,,,,,3.3,2.2,2.5*3C
$GPVTG,167.4,T,,M,13.7,N,25.4,K*62
$GPGSV,3,1,11,22,15,277,22,18,09,244,24,17,26,047,30,15,15,168,34*73
$GPGSV,3,2,11,12,58,239,34,30,23,243,24,14,26,313,,26,61,227,34*7B
$GPGSV,3,3,11,04,04,098,,09,80,101,32,27,63,111,34*4E
$GPGGA,144325.0,5114.306479,N,00644.654056,E,1,06,2.0,80.0,M,,,,*3A
$GPRMC,144325.0,A,5114.306479,N,00644.654056,E,12.1,167.3,070709,,,A*5F
$GPGSA,A,3,09,12,15,17,26,27,,,,,,,3.1,2.0,2.4*3D
$GPVTG,167.3,T,,M,12.1,N,22.4,K*65
$GPGSV,3,1,11,22,15,277,22,18,09,244,22,17,26,047,31,15,15,168,33*73
$GPGSV,3,2,11,12,58,239,34,30,23,243,29,14,26,313,,26,61,227,33*71
$GPGSV,3,3,11,04,04,098,,09,80,101,32,27,63,111,34*4E
$GPGGA,144326.0,5114.303419,N,00644.655203,E,1,06,2.0,79.5,M,,,,*3A
$GPRMC,144326.0,A,5114.303419,N,00644.655203,E,10.3,167.2,070709,,,A*5D
$GPGSA,A,3,09,12,15,17,26,27,,,,,,,3.0,2.0,2.3*3B
$GPVTG,167.2,T,,M,10.3,N,19.2,K*6A
$GPGSV,3,1,11,22,15,277,22,18,09,244,21,17,26,047,31,15,15,168,31*72
$GPGSV,3,2,11,12,58,239,34,30,23,243,25,14,26,313,,26,61,227,34*7A
$GPGSV,3,3,11,04,04,098,,09,80,101,32,27,63,111,34*4E
$GPGGA,144327.0,5114.300950,N,00644.656143,E,1,06,1.9,79.5,M,,,,*36
$GPRMC,144327.0,A,5114.300950,N,00644.656143,E,8.6,166.4,070709,,,A*60
$GPGSA,A,3,09,12,15,17,26,27,,,,,,,2.9,1.9,2.2*38
$GPVTG,166.4,T,,M,8.6,N,15.9,K*56
$GPGSV,3,1,11,22,15,277,22,18,09,244,21,17,26,047,33,15,15,168,33*72
$GPGSV,3,2,11,12,58,239,34,30,23,243,24,14,26,313,,26,61,227,34*7B
$GPGSV,3,3,11,04,04,098,,09,80,101,33,27,63,111,34*4F
$GPGGA,144328.0,5114.299323,N,00644.656601,E,1,06,1.9,79.0,M,,,,*32
$GPRMC,144328.0,A,5114.299323,N,00644.656601,E,5.7,167.5,070709,,,A*6D
$GPGSA,A,3,09,12,15,17,26,27,,,,,,,2.9,1.9,2.1*3B
$GPVTG,167.5,T,,M,5.7,N,10.6,K*50
$GPGSV,3,1,11,22,15,277,22,18,09,244,20,17,26,047,33,15,15,168,33*73
$GPGSV,3,2,11,12,58,239,35,30,23,243,21,14,26,313,,26,61,227,34*7F
$GPGSV,3,3,11,04,04,098,,09,80,101,33,27,63,111,34*4F
$GPGGA,144329.0,5114.297922,N,00644.657310,E,1,06,1.9,79.5,M,,,,*37
$GPRMC,144329.0,A,5114.297922,N,00644.657310,E,4.5,166.6,070709,,,A*6C
$GPGSA,A,3,09,12,15,17,26,27,,,,,,,2.8,1.9,2.1*3A
$GPVTG,166.6,T,,M,4.5,N,8.3,K*6D
$GPGSV,3,1,11,22,15,277,22,18,09,244,20,17,26,047,32,15,15,168,31*70
$GPGSV,3,2,11,12,58,239,36,30,23,243,22,14,26,313,,26,61,227,34*7F
$GPGSV,3,3,11,04,04,098,,09,80,101,33,27,63,111,35*4E
$GPGGA,144330.0,5114.296984,N,00644.657803,E,1,06,1.8,79.5,M,,,,*3A
$GPRMC,144330.0,A,5114.296984,N,00644.657803,E,3.1,166.5,070709,,,A*60
$GPGSA,A,3,09,12,15,17,26,27,,,,,,,2.8,1.8,2.1*3B
$GPVTG,166.5,T,,M,3.1,N,5.6,K*65
$GPGSV,3,1,11,22,15,277,22,18,09,244,22,17,26,047,32,15,15,168,31*72
$GPGSV,3,2,11,12,58,239,35,30,23,243,25,14,26,313,,26,61,227,33*7C
$GPGSV,3,3,11,04,04,098,,09,80,101,32,27,63,111,34*4E
$GPGGA,144331.0,5114.296363,N,00644.658060,E,1,06,1.8,79.5,M,,,,*3A
$GPRMC,144331.0,A,5114.296363,N,00644.658060,E,1.6,163.2,070709,,,A*67
$GPGSA,A,3,09,12,15,17,26,27,,,,,,,2.7,1.8,2.0*35
$GPVTG,163.2,T,,M,1.6,N,3.0,K*62
$GPGSV,3,1,11,22,15,277,22,18,09,244,20,17,26,047,33,15,15,168,34*74
$GPGSV,3,2,11,12,58,239,35,30,23,243,27,14,26,313,,26,61,227,32*7F
$GPGSV,3,3,11,04,04,098,,09,80,101,31,27,63,111,34*4D
$GPGGA,144332.0,5114.296031,N,00644.658055,E,1,06,1.7,79.5,M,,,,*34
$GPRMC,144332.0,A,5114.296031,N,00644.658055,E,,,070709,,,A*67
$GPGSA,A,3,09,12,15,17,26,27,,,,,,,2.7,1.7,2.0*3A
$GPVTG,,T,,M,0.0,N,0.0,K*4E
$GPGSV,3,1,11,22,15,277,,18,09,244,21,17,26,047,33,15,15,168,35*74
$GPGSV,3,2,11,12,58,239,33,30,23,243,24,14,26,313,,26,61,227,34*7C
$GPGSV,3,3,11,04,04,098,,09,80,101,33,27,63,111,34*4F
$GPGGA,144333.0,5114.295936,N,00644.657964,E,1,06,1.8,79.5,M,,,,*33
$GPRMC,144333.0,A,5114.295936,N,00644.657964,E,,,070709,,,A*6F
$GPGSA,A,3,09,12,15,17,26,27,,,,,,,2.7,1.8,2.0*35
$GPVTG,,T,,M,0.0,N,0.0,K*4E
$GPGSV,3,1,11,22,15,277,,18,09,244,21,17,26,047,34,15,15,168,34*72
$GPGSV,3,2,11,12,58,239,34,30,23,243,25,14,26,313,,26,61,227,33*7D
$GPGSV,3,3,11,04,04,098,,09,80,101,33,27,63,111,34*4F
$GPGGA,144334.0,5114.295837,N,00644.657919,E,1,06,1.8,79.0,M,,,,*3B
$GPRMC,144334.0,A,5114.295837,N,00644.657919,E,,,070709,,,A*62
$GPGSA,A,3,09,12,15,17,26,27,,,,,,,2.7,1.8,2.0*35
$GPVTG,,T,,M,0.0,N,0.0,K*4E
$GPGSV,3,1,11,22,15,277,,18,09,244,20,17,26,047,33,15,15,168,35*75
$GPGSV,3,2,11,12,58,239,33,30,23,243,22,14,26,313,,26,61,227,33*7D
$GPGSV,3,3,11,04,04,098,,09,80,101,33,27,63,111,35*4E
$GPGGA,144335.0,5114.295762,N,00644.657994,E,1,06,1.8,78.0,M,,,,*31
$GPRMC,144335.0,A,5114.295762,N,00644.657994,E,,,070709,,,A*69
$GPGSA,A,3,09,12,15,17,26,27,,,,,,,2.6,1.8,1.9*3E
$GPVTG,,T,,M,0.0,N,0.0,K*4E
$GPGSV,3,1,11,22,15,277,,18,09,244,22,17,26,047,33,15,15,168,35*77
$GPGSV,3,2,11,12,58,239,35,30,23,243,22,14,26,313,,26,61,227,32*7A
$GPGSV,3,3,11,04,04,098,,09,80,101,33,27,63,111,34*4F
$GPGGA,144336.0,5114.295734,N,00644.657823,E,1,06,1.8,78.0,M,,,,*3C
$GPRMC,144336.0,A,5114.295734,N,00644.657823,E,,,070709,,,A*64
$GPGSA,A,3,09,12,15,17,26,27,,,,,,,2.6,1.8,1.9*3E
$GPVTG,,T,,M,0.0,N,0.0,K*4E
$GPGSV,3,1,11,22,15,277,,18,09,244,22,17,26,047,34,15,15,168,34*71
$GPGSV,3,2,11,12,58,239,35,30,23,243,24,14,26,313,,26,61,227,34*7A
$GPGSV,3,3,11,04,04,098,,09,80,101,34,27,63,111,34*48
$GPGGA,144337.0,5114.295629,N,00644.657622,E,1,06,1.8,78.0,M,,,,*3F
$GPRMC,144337.0,A,5114.295629,N,00644.657622,E,,,070709,,,A*67
$GPGSA,A,3,09,12,15,17,26,27,,,,,,,2.6,1.8,1.9*3E
$GPVTG,,T,,M,0.0,N,0.0,K*4E
$GPGSV,3,1,11,22,15,277,,18,09,244,22,17,26,047,35,15,15,168,34*70
$GPGSV,3,2,11,12,58,239,36,30,23,243,26,14,26,313,,26,61,227,32*7D
$GPGSV,3,3,11,04,04,098,,09,80,101,33,27,63,111,35*4E
$GPGGA,144338.0,5114.295551,N,00644.657501,E,1,06,1.7,78.0,M,,,,*31
$GPRMC,144338.0,A,5114.295551,N,00644.657501,E,,,070709,,,A*66
$GPGSA,A,3,09,12,15,17,26,27,,,,,,,2.6,1.7,1.9*31
$GPVTG,,T,,M,0.0,N,0.0,K*4E
$GPGSV,3,1,11,22,15,277,,18,09,244,22,17,26,047,35,15,15,168,34*70
$GPGSV,3,2,11,12,58,239,35,30,23,243,25,14,26,313,,26,61,227,33*7C
$GPGSV,3,3,11,04,04,098,,09,80,101,33,27,63,111,34*4F
$GPGGA,144339.0,5114.295586,N,00644.657270,E,1,06,1.7,78.0,M,,,,*3B
$GPRMC,144339.0,A,5114.295586,N,00644.657270,E,,,070709,,,A*6C
$GPGSA,A,3,09,12,15,17,26,27,,,,,,,2.6,1.7,1.9*31
$GPVTG,,T,,M,0.0,N,0.0,K*4E
$GPGSV,3,1,11,22,15,277,,18,09,244,22,17,26,047,34,15,15,168,34*71
$GPGSV,3,2,11,12,58,239,36,30,23,243,25,14,26,313,,26,61,227,33*7F
$GPGSV,3,3,11,04,04,098,,09,80,101,33,27,63,111,33*48
$GPGGA,144340.0,5114.295634,N,00644.657164,E,1,06,1.8,78.0,M,,,,*36
$GPRMC,144340.0,A,5114.295634,N,00644.657164,E,,,070709,,,A*6E
$GPGSA,A,3,09,12,15,17,26,27,,,,,,,2.6,1.8,1.9*3E
$GPVTG,,T,,M,0.0,N,0.0,K*4E
$GPGSV,3,1,11,22,15,277,,18,09,244,22,17,26,047,33,15,15,168,34*76
$GPGSV,3,2,11,12,58,239,35,30,23,243,25,14,26,313,,26,61,227,34*7B
$GPGSV,3,3,11,04,04,098,,09,80,101,33,27,63,111,34*4F
$GPGGA,144341.0,5114.295651,N,00644.657134,E,1,06,1.8,78.0,M,,,,*31
$GPRMC,144341.0,A,5114.295651,N,00644.657134,E,,,070709,,,A*69
$GPGSA,A,3,09,12,15,17,26,27,,,,,,,2.6,1.8,1.9*3E
$GPVTG,,T,,M,0.0,N,0.0,K*4E
$GPGSV,3,1,11,22,15,277,,18,09,244,22,17,26,047,34,15,15,168,34*71
$GPGSV,3,2,11,12,58,239,36,30,23,243,25,14,26,313,,26,61,227,34*78
$GPGSV,3,3,11,04,04,098,,09,80,101,32,27,63,111,34*4E
$GPGGA,144342.0,5114.295651,N,00644.657134,E,1,06,1.8,78.0,M,,,,*32
$GPRMC,144342.0,A,5114.295651,N,00644.657134,E,,,070709,,,A*6A
$GPGSA,A,3,09,12,15,17,26,27,,,,,,,2.7,1.8,2.0*35
$GPVTG,,T,,M,0.0,N,0.0,K*4E
$GPGSV,3,1,11,22,15,277,,18,09,244,22,17,26,047,33,15,15,168,31*73
$GPGSV,3,2,11,12,58,239,34,30,23,243,20,14,26,313,,26,61,227,34*7F
$GPGSV,3,3,11,04,04,098,,09,80,101,33,27,63,111,34*4F
$GPGGA,144343.0,5114.295123,N,00644.657310,E,1,06,1.8,78.5,M,,,,*30
$GPRMC,144343.0,A,5114.295123,N,00644.657310,E,2.9,171.2,070709,,,A*63
$GPGSA,A,3,09,12,15,17,26,27,,,,,,,2.7,1.8,2.0*35
$GPVTG,171.2,T,,M,2.9,N,5.4,K*6F
$GPGSV,3,1,11,22,15,277,,18,09,244,22,17,26,047,32,15,15,168,32*71
$GPGSV,3,2,11,12,58,239,35,30,23,243,23,14,26,313,,26,61,227,33*7A
$GPGSV,3,3,11,04,04,098,,09,80,101,33,27,63,111,34*4F
$GPGGA,144344.0,5114.293969,N,00644.657697,E,1,06,1.8,78.5,M,,,,*3D
$GPRMC,144344.0,A,5114.293969,N,00644.657697,E,5.1,171.6,070709,,,A*65
$GPGSA,A,3,09,12,15,17,26,27,,,,,,,2.7,1.8,2.0*35
$GPVTG,171.6,T,,M,5.1,N,9.4,K*68
$GPGSV,3,1,11,22,15,277,,18,09,244,22,17,26,047,33,15,15,168,32*70
$GPGSV,3,2,11,12,58,239,35,30,23,243,24,14,26,313,,26,61,227,34*7A
$GPGSV,3,3,11,04,04,098,,09,80,101,33,27,63,111,34*4F
$GPGGA,144345.0,5114.292061,N,00644.658447,E,1,06,1.8,78.0,M,,,,*39
$GPRMC,144345.0,A,5114.292061,N,00644.658447,E,8.2,167.3,070709,,,A*68
$GPGSA,A,3,09,12,15,17,26,27,,,,,,,2.7,1.8,2.0*35
$GPVTG,167.3,T,,M,8.2,N,15.2,K*5F
$GPGSV,3,1,11,22,15,277,,18,09,244,22,17,26,047,32,15,15,168,33*70
$GPGSV,3,2,11,12,58,239,35,30,23,243,26,14,26,313,,26,61,227,34*78
$GPGSV,3,3,11,04,04,098,,09,80,101,33,27,63,111,34*4F
$GPGGA,144346.0,5114.289717,N,00644.659226,E,1,06,1.8,78.0,M,,,,*36
$GPRMC,144346.0,A,5114.289717,N,00644.659226,E,9.6,166.7,070709,,,A*67
$GPGSA,A,3,09,12,15,17,26,27,,,,,,,2.7,1.8,2.0*35
$GPVTG,166.7,T,,M,9.6,N,17.7,K*58
$GPGSV,3,1,11,22,15,277,,18,09,244,22,17,26,047,32,15,15,168,34*77
$GPGSV,3,2,11,12,58,239,35,30,23,243,25,14,26,313,,26,61,227,34*7B
$GPGSV,3,3,11,04,04,098,,09,80,101,34,27,63,111,34*48
$GPGGA,144347.0,5114.286833,N,00644.660433,E,1,06,1.8,78.0,M,,,,*39
$GPRMC,144347.0,A,5114.286833,N,00644.660433,E,11.5,167.0,070709,,,A*54
$GPGSA,A,3,09,12,15,17,26,27,,,,,,,2.7,1.8,2.0*35
$GPVTG,167.0,T,,M,11.5,N,21.3,K*65
$GPGSV,3,1,11,22,15,277,,18,09,244,14,17,26,047,33,15,15,168,34*73
$GPGSV,3,2,11,12,58,239,34,30,23,243,27,14,26,313,,26,61,226,34*79
$GPGSV,3,3,11,04,04,098,,09,80,101,34,27,63,111,34*48
$GPGGA,144348.0,5114.283566,N,00644.661605,E,1,06,1.8,78.0,M,,,,*38
$GPRMC,144348.0,A,5114.283566,N,00644.661605,E,12.8,167.1,070709,,,A*5A
$GPGSA,A,3,09,12,15,17,26,27,,,,,,,2.8,1.8,2.0*3A
$GPVTG,167.1,T,,M,12.8,N,23.7,K*6C
$GPGSV,3,1,11,22,15,277,,18,08,244,14,17,26,047,33,15,15,168,33*75
$GPGSV,3,2,11,12,58,239,35,30,23,243,26,14,26,313,,26,61,226,34*79
$GPGSV,3,3,11,04,04,098,,09,80,101,35,27,63,111,34*49
$GPGGA,144349.0,5114.279837,N,00644.662928,E,1,06,1.8,77.5,M,,,,*3C
$GPRMC,144349.0,A,5114.279837,N,00644.662928,E,14.7,166.7,070709,,,A*5A
$GPGSA,A,3,09,12,15,17,26,27,,,,,,,2.7,1.8,2.0*35
$GPVTG,166.7,T,,M,14.7,N,27.2,K*63
$GPGSV,3,1,11,22,15,277,,18,08,244,14,17,26,047,33,15,15,168,31*77
$GPGSV,3,2,11,12,58,240,35,30,23,243,27,14,26,313,,26,61,226,33*71
$GPGSV,3,3,11,04,04,098,,09,80,101,35,27,63,111,34*49
$GPGGA,144350.0,5114.275645,N,00644.664452,E,1,06,1.8,77.5,M,,,,*35
$GPRMC,144350.0,A,5114.275645,N,00644.664452,E,16.4,166.5,070709,,,A*50
$GPGSA,A,3,09,12,15,17,26,27,,,,,,,2.7,1.8,2.0*35
$GPVTG,166.5,T,,M,16.4,N,30.3,K*67
$GPGSV,1,1,00*79
$GPGGA,144351.0,5114.270988,N,00644.666438,E,1,06,1.8,77.5,M,,,,*31
$GPRMC,144351.0,A,5114.270988,N,00644.666438,E,18.0,165.9,070709,,,A*51
$GPGSA,A,3,09,12,15,17,26,27,,,,,,,2.7,1.8,2.0*35
$GPVTG,165.9,T,,M,18.0,N,33.4,K*66
$GPGSV,3,1,11,22,15,277,,18,08,244,18,17,26,047,33,15,15,168,26*7D
$GPGSV,3,2,11,12,58,240,35,30,23,243,30,14,26,313,27,26,61,226,34*75
$GPGSV,3,3,11,04,04,098,,09,80,101,33,27,63,111,34*4F
$GPGGA,144352.0,5114.265937,N,00644.668510,E,1,06,2.1,78.0,M,,,,*37
$GPRMC,144352.0,A,5114.265937,N,00644.668510,E,19.3,166.4,070709,,,A*5B
$GPGSA,A,3,09,12,15,17,26,27,,,,,,,3.2,2.1,2.4*3F
$GPVTG,166.4,T,,M,19.3,N,35.7,K*6F
$GPGSV,1,1,00*79
$GPGGA,144353.0,5114.260488,N,00644.670688,E,1,06,2.6,78.0,M,,,,*36
$GPRMC,144353.0,A,5114.260488,N,00644.670688,E,20.8,165.9,070709,,,A*52
$GPGSA,A,3,09,12,15,17,26,27,,,,,,,4.0,2.6,3.0*38
$GPVTG,165.9,T,,M,20.8,N,38.6,K*6C
$GPGSV,3,1,11,22,15,277,,18,08,244,18,17,26,047,23,15,15,168,23*79
$GPGSV,3,2,11,12,58,240,35,30,23,243,29,14,26,313,28,26,61,226,34*72
$GPGSV,3,3,11,04,04,098,,09,80,101,34,27,63,111,33*4F
$GPGGA,144354.0,5114.254624,N,00644.673192,E,1,06,3.2,78.0,M,,,,*38
$GPRMC,144354.0,A,5114.254624,N,00644.673192,E,22.1,164.7,070709,,,A*5D
$GPGSA,A,3,09,12,15,17,26,27,,,,,,,5.2,3.2,4.1*38
$GPVTG,164.7,T,,M,22.1,N,41.0,K*60
$GPGSV,3,1,11,22,15,277,,18,08,244,18,17,26,047,23,15,15,168,21*7B
$GPGSV,3,2,11,12,58,240,34,30,23,243,31,14,26,313,29,26,61,226,35*7A
$GPGSV,3,3,11,04,04,098,,09,80,101,34,27,63,111,34*48
$GPGGA,144355.0,5114.248589,N,00644.676039,E,1,06,3.4,78.0,M,,,,*33
$GPRMC,144355.0,A,5114.248589,N,00644.676039,E,22.8,162.7,070709,,,A*5F
$GPGSA,A,3,09,12,15,17,26,27,,,,,,,5.7,3.4,4.5*3F
$GPVTG,162.7,T,,M,22.8,N,42.3,K*6F
$GPGSV,3,1,11,22,15,277,,18,08,244,18,17,26,047,27,15,14,168,21*7E
$GPGSV,3,2,11,12,58,240,33,30,23,243,28,14,26,313,30,26,61,226,32*7A
$GPGSV,3,3,11,04,04,098,,09,80,101,33,27,63,111,33*48
$GPGGA,144356.0,5114.242068,N,00644.679418,E,1,06,2.7,78.0,M,,,,*3A
$GPRMC,144356.0,A,5114.242068,N,00644.679418,E,24.5,162.1,070709,,,A*59
$GPGSA,A,3,09,12,15,17,26,27,,,,,,,4.2,2.7,3.3*38
$GPVTG,162.1,T,,M,24.5,N,45.3,K*65
$GPGSV,3,1,11,22,15,277,,18,08,244,18,17,26,047,25,15,14,168,21*7C
$GPGSV,3,2,11,12,58,240,23,30,23,243,22,14,26,313,28,26,61,226,25*7E
$GPGSV,3,3,11,04,04,098,,09,80,101,30,27,63,111,32*4A
$GPGGA,144357.0,5114.235505,N,00644.682924,E,1,06,2.2,78.0,M,,,,*36
$GPRMC,144357.0,A,5114.235505,N,00644.682924,E,24.9,161.0,070709,,,A*5E
$GPGSA,A,3,09,12,15,17,26,27,,,,,,,3.3,2.2,2.4*3D
$GPVTG,161.0,T,,M,24.9,N,46.2,K*69
$GPGSV,3,1,11,22,15,277,,18,08,244,18,17,26,047,31,15,14,168,21*79
$GPGSV,3,2,11,12,58,240,26,30,23,243,22,14,26,313,20,26,61,226,28*7E
$GPGSV,3,3,11,04,04,098,,09,80,101,32,27,63,111,33*49
$GPGGA,144358.0,5114.228636,N,00644.686806,E,1,06,2.3,78.5,M,,,,*37
$GPRMC,144358.0,A,5114.228636,N,00644.686806,E,26.1,160.6,070709,,,A*56
$GPGSA,A,3,09,12,15,17,26,27,,,,,,,3.4,2.3,2.5*3A
$GPVTG,160.6,T,,M,26.1,N,48.4,K*6C
$GPGSV,3,1,11,22,15,277,,18,08,244,18,17,26,047,30,15,14,168,21*78
$GPGSV,3,2,11,12,58,240,27,30,23,243,26,14,26,313,20,26,61,226,29*7A
$GPGSV,3,3,11,04,04,098,,09,80,101,33,27,63,111,33*48
$GPGGA,144359.0,5114.221728,N,00644.690714,E,1,06,2.3,78.5,M,,,,*3A
$GPRMC,144359.0,A,5114.221728,N,00644.690714,E,26.6,160.1,070709,,,A*5B
$GPGSA,A,3,09,12,15,17,26,27,,,,,,,3.5,2.3,2.6*38
$GPVTG,160.1,T,,M,26.6,N,49.2,K*6B
$GPGSV,3,1,11,22,15,277,,18,08,244,18,17,26,047,30,15,14,168,22*7B
$GPGSV,3,2,11,12,58,240,27,30,24,243,25,14,26,313,21,26,61,226,27*71
$GPGSV,3,3,11,04,04,098,,09,80,101,32,27,63,111,33*49
$GPGGA,144400.0,5114.214931,N,00644.694782,E,1,06,2.1,78.5,M,,,,*38
$GPRMC,144400.0,A,5114.214931,N,00644.694782,E,26.2,158.9,070709,,,A*5C
$GPGSA,A,3,09,12,15,17,26,27,,,,,,,3.1,2.1,2.3*3B
$GPVTG,158.9,T,,M,26.2,N,48.4,K*6B
$GPGSV,3,1,11,22,15,277,,18,08,244,18,17,26,047,21,15,14,168,25*7C
$GPGSV,3,2,11,12,58,240,26,30,24,243,25,14,26,313,22,26,61,226,27*73
$GPGSV,3,3,11,04,04,098,,09,80,102,30,27,63,111,33*48
$GPGGA,144401.0,5114.208433,N,00644.698826,E,1,06,2.5,79.0,M,,,,*36
$GPRMC,144401.0,A,5114.208433,N,00644.698826,E,25.2,158.7,070709,,,A*5F
$GPGSA,A,3,09,12,15,17,26,27,,,,,,,3.8,2.5,2.8*3D
$GPVTG,158.7,T,,M,25.2,N,46.8,K*64
$GPGSV,3,1,11,22,15,277,,18,08,244,18,17,26,047,22,15,14,168,21*7B
$GPGSV,3,2,11,12,58,240,29,30,24,243,24,14,26,313,22,26,61,226,32*79
$GPGSV,3,3,11,04,04,098,,09,80,102,33,27,63,111,33*4B
$GPGGA,144402.0,5114.201966,N,00644.703080,E,1,06,3.0,79.0,M,,,,*32
$GPRMC,144402.0,A,5114.201966,N,00644.703080,E,25.1,157.4,070709,,,A*50
$GPGSA,A,3,09,12,15,17,26,27,,,,,,,4.9,3.0,3.8*3E
$GPVTG,157.4,T,,M,25.1,N,46.5,K*66
$GPGSV,3,1,11,22,15,277,,18,08,244,18,17,26,047,22,15,14,168,21*7B
$GPGSV,3,2,11,12,58,240,34,30,24,243,22,14,26,313,23,26,61,226,33*73
$GPGSV,3,3,11,04,04,098,,09,80,102,33,27,63,111,33*4B
$GPGGA,144403.0,5114.195888,N,00644.707556,E,1,06,3.1,79.0,M,,,,*37
$GPRMC,144403.0,A,5114.195888,N,00644.707556,E,24.2,155.7,070709,,,A*57
$GPGSA,A,3,09,12,15,17,26,27,,,,,,,5.2,3.1,4.1*3B
$GPVTG,155.7,T,,M,24.2,N,44.8,K*6A
$GPGSV,3,1,11,22,15,277,,18,08,244,18,17,26,047,21,15,14,168,23*7A
$GPGSV,3,2,11,12,58,240,28,30,24,243,20,14,26,313,29,26,61,226,28*7C
$GPGSV,3,3,11,04,04,098,,09,80,102,33,27,63,111,34*4C
$GPGGA,144404.0,5114.190339,N,00644.711967,E,1,06,2.9,79.0,M,,,,*34
$GPRMC,144404.0,A,5114.190339,N,00644.711967,E,23.1,152.9,070709,,,A*50
$GPGSA,A,3,09,12,15,17,26,27,,,,,,,4.6,2.9,3.5*34
$GPVTG,152.9,T,,M,23.1,N,42.8,K*61
$GPGSV,3,1,11,22,15,277,,18,08,244,18,17,26,047,21,15,14,168,24*7D
$GPGSV,3,2,11,12,58,240,29,30,24,243,21,14,26,313,23,26,61,226,29*77
$GPGSV,3,3,11,04,04,098,,09,80,102,33,27,63,111,34*4C
$GPGGA,144405.0,5114.184543,N,00644.716584,E,1,06,3.1,79.0,M,,,,*34
$GPRMC,144405.0,A,5114.184543,N,00644.716584,E,23.3,153.6,070709,,,A*55
$GPGSA,A,3,09,12,15,17,26,27,,,,,,,4.9,3.1,3.8*3F
$GPVTG,153.6,T,,M,23.3,N,43.2,K*66
$GPGSV,3,1,11,22,15,277,,18,08,244,18,17,26,047,21,15,14,168,28*71
$GPGSV,3,2,11,12,58,240,30,30,24,243,21,14,26,313,22,26,61,226,28*7F
$GPGSV,3,3,11,04,04,098,,09,80,102,34,27,63,111,35*4A
$GPGGA,144406.0,5114.178822,N,00644.721241,E,1,06,3.4,79.0,M,,,,*31
$GPRMC,144406.0,A,5114.178822,N,00644.721241,E,23.0,152.7,070709,,,A*56
$GPGSA,A,3,09,12,15,17,26,27,,,,,,,5.3,3.4,4.0*3E
$GPVTG,152.7,T,,M,23.0,N,42.6,K*60
$GPGSV,3,1,11,22,15,277,,18,08,244,18,17,26,047,21,15,14,168,20*79
$GPGSV,3,2,11,12,58,240,29,30,24,243,21,14,26,313,22,26,61,226,28*77
$GPGSV,3,3,11,04,04,098,,09,80,102,33,27,63,111,35*4D
$GPGGA,144407.0,5114.173240,N,00644.725812,E,1,06,14.0,79.0,M,,,,*0F
$GPRMC,144407.0,A,5114.173240,N,00644.725812,E,22.6,152.9,070709,,,A*53
$GPGSA,A,3,09,12,15,17,26,27,,,,,,,23.9,14.0,19.4*0A
$GPVTG,152.9,T,,M,22.6,N,41.9,K*65
$GPGSV,3,1,11,22,15,277,,18,08,244,18,17,26,047,21,15,14,168,22*7B
$GPGSV,3,2,11,12,58,240,35,30,24,243,25,14,26,313,22,26,61,226,32*75
$GPGSV,3,3,11,04,04,098,,09,80,102,33,27,63,111,34*4C
$GPGGA,144408.0,5114.167544,N,00644.730560,E,1,06,11.2,79.0,M,,,,*0D
$GPRMC,144408.0,A,5114.167544,N,00644.730560,E,22.8,152.5,070709,,,A*54
$GPGSA,A,3,09,12,15,17,26,27,,,,,,,19.0,11.2,15.2*07
$GPVTG,152.5,T,,M,22.8,N,42.2,K*6F
$GPGSV,3,1,11,22,15,277,,18,08,244,18,17,26,047,21,15,14,168,21*78
$GPGSV,3,2,11,12,58,240,27,30,24,243,27,14,26,313,25,26,61,226,26*76
$GPGSV,3,3,11,04,04,098,,09,80,102,33,27,63,111,34*4C
$GPGGA,144409.0,5114.161984,N,00644.735005,E,1,06,15.2,79.5,M,,,,*08
$GPRMC,144409.0,A,5114.161984,N,00644.735005,E,22.2,154.3,070709,,,A*5A
$GPGSA,A,3,09,12,15,17,26,27,,,,,,,25.5,15.2,20.4*09
$GPVTG,154.3,T,,M,22.2,N,41.2,K*66
$GPGSV,3,1,11,22,15,277,,18,08,244,18,17,26,047,21,15,14,168,22*7B
$GPGSV,3,2,11,12,58,240,35,30,24,243,24,14,26,313,21,26,61,226,34*71
$GPGSV,3,3,11,04,04,098,,09,80,102,33,27,63,111,35*4D
$GPGGA,144410.0,5114.156797,N,00644.739547,E,1,06,14.4,79.5,M,,,,*00
$GPRMC,144410.0,A,5114.156797,N,00644.739547,E,21.5,151.3,070709,,,A*54
$GPGSA,A,3,09,12,15,17,26,27,,,,,,,23.9,14.4,19.1*0B
$GPVTG,151.3,T,,M,21.5,N,39.8,K*62
$GPGSV,3,1,11,22,15,277,,18,08,244,18,17,26,047,21,15,14,168,26*7F
$GPGSV,3,2,11,12,58,240,34,30,24,243,24,14,26,313,28,26,61,226,33*7E
$GPGSV,3,3,11,04,04,098,,09,80,102,33,27,63,111,35*4D
$GPGGA,144411.0,5114.151753,N,00644.744355,E,1,05,14.0,79.5,M,,,,*06
$GPRMC,144411.0,A,5114.151753,N,00644.744355,E,21.0,149.3,070709,,,A*59
$GPGSA,A,3,09,12,15,26,27,,,,,,,,22.6,14.0,17.7*0F
$GPVTG,149.3,T,,M,21.0,N,38.9,K*6E
$GPGSV,3,1,11,22,15,277,,18,08,244,,17,26,047,21,15,14,168,24*74
$GPGSV,3,2,11,12,58,240,29,30,24,243,24,14,26,313,33,26,61,226,28*72
$GPGSV,3,3,11,04,04,098,,09,80,102,35,27,63,111,36*48
$GPGGA,144412.0,5114.146618,N,00644.749374,E,1,05,13.4,79.5,M,,,,*00
$GPRMC,144412.0,A,5114.146618,N,00644.749374,E,21.6,147.7,070709,,,A*50
$GPGSA,A,3,09,12,15,26,27,,,,,,,,22.2,13.4,17.7*08
$GPVTG,147.7,T,,M,21.6,N,40.1,K*65
$GPGSV,3,1,11,22,15,277,,18,08,244,,17,26,047,24,15,14,168,21*74
$GPGSV,3,2,11,12,58,240,28,30,24,243,24,14,26,313,31,26,61,226,28*71
$GPGSV,3,3,11,04,04,098,,09,80,102,32,27,63,111,34*4D
$GPGGA,144413.0,5114.141875,N,00644.754554,E,1,05,13.9,79.5,M,,,,*06
$GPRMC,144413.0,A,5114.141875,N,00644.754554,E,20.8,145.5,070709,,,A*54
$GPGSA,A,3,09,12,15,26,27,,,,,,,,23.5,13.9,18.9*02
$GPVTG,145.5,T,,M,20.8,N,38.5,K*61
$GPGSV,3,1,11,22,15,277,,18,08,244,,17,26,047,24,15,14,168,27*72
$GPGSV,3,2,11,12,58,240,28,30,24,243,26,14,26,313,25,26,61,226,27*79
$GPGSV,3,3,11,04,04,098,,09,80,102,31,27,63,111,33*49
$GPGGA,144414.0,5114.137055,N,00644.759814,E,1,05,15.1,79.5,M,,,,*00
$GPRMC,144414.0,A,5114.137055,N,00644.759814,E,21.1,146.2,070709,,,A*50
$GPGSA,A,3,09,12,15,26,27,,,,,,,,24.0,15.1,18.6*01
$GPVTG,146.2,T,,M,21.1,N,39.1,K*68
$GPGSV,3,1,11,22,15,277,,18,08,244,,17,26,047,24,15,14,168,22*77
$GPGSV,3,2,11,12,58,240,26,30,24,243,27,14,26,313,25,26,61,226,27*76
$GPGSV,3,3,11,04,04,098,,09,80,102,32,27,63,111,34*4D
$GPGGA,144415.0,5114.132222,N,00644.765165,E,1,06,2.3,79.5,M,,,,*31
$GPRMC,144415.0,A,5114.132222,N,00644.765165,E,21.4,144.9,070709,,,A*5A
$GPGSA,A,3,09,12,15,17,26,27,,,,,,,3.5,2.3,2.6*38
$GPVTG,144.9,T,,M,21.4,N,39.6,K*63
$GPGSV,3,1,11,22,15,277,,18,08,244,,17,26,047,24,15,14,168,22*77
$GPGSV,3,2,11,12,58,240,26,30,24,243,24,14,26,313,21,26,61,226,27*71
$GPGSV,3,3,11,04,04,098,,09,80,102,34,27,63,111,35*4A
$GPGGA,144416.0,5114.127017,N,00644.770964,E,1,06,2.4,79.5,M,,,,*38
$GPRMC,144416.0,A,5114.127017,N,00644.770964,E,22.7,144.1,070709,,,A*5C
$GPGSA,A,3,09,12,15,17,26,27,,,,,,,3.8,2.4,2.9*3D
$GPVTG,144.1,T,,M,22.7,N,42.0,K*61
$GPGSV,3,1,11,22,15,277,,18,08,244,,17,26,047,24,15,14,168,23*76
$GPGSV,3,2,11,12,58,240,25,30,24,243,27,14,26,313,21,26,61,226,25*73
$GPGSV,3,3,11,04,04,098,,09,80,102,33,27,63,111,35*4D
$GPGGA,144417.0,5114.121806,N,00644.776999,E,1,06,2.5,79.5,M,,,,*32
$GPRMC,144417.0,A,5114.121806,N,00644.776999,E,23.2,143.2,070709,,,A*57
$GPGSA,A,3,09,12,15,17,26,27,,,,,,,3.7,2.5,2.7*3D
$GPVTG,143.2,T,,M,23.2,N,43.0,K*60
$GPGSV,3,1,11,22,15,277,,18,08,244,,17,26,047,24,15,14,168,23*76
$GPGSV,3,2,11,12,58,240,34,30,24,243,25,14,26,313,21,26,61,226,34*71
$GPGSV,3,3,11,04,04,098,,09,80,102,35,27,63,111,36*48
$GPGGA,144418.0,5114.116523,N,00644.783989,E,1,06,9.8,79.5,M,,,,*3E
$GPRMC,144418.0,A,5114.116523,N,00644.783989,E,24.7,140.8,070709,,,A*56
$GPGSA,A,3,09,12,15,17,26,27,,,,,,,16.8,9.8,13.7*30
$GPVTG,140.8,T,,M,24.7,N,45.8,K*65
$GPGSV,3,1,11,22,15,277,,18,08,244,,17,26,047,22,15,14,168,23*70
$GPGSV,3,2,11,12,58,240,25,30,24,243,27,14,26,313,22,26,60,226,25*71
$GPGSV,3,3,11,04,04,098,,09,80,102,34,27,63,111,36*49
$GPGGA,144419.0,5114.111419,N,00644.790824,E,1,06,3.0,79.5,M,,,,*36
$GPRMC,144419.0,A,5114.111419,N,00644.790824,E,24.3,140.1,070709,,,A*51
$GPGSA,A,3,09,12,15,17,26,27,,,,,,,4.7,3.0,3.6*3E
$GPVTG,140.1,T,,M,24.3,N,45.1,K*61
$GPGSV,3,1,11,22,15,277,,18,08,244,,17,26,047,21,15,14,168,23*73
$GPGSV,3,2,11,12,58,240,29,30,24,243,28,14,26,313,24,26,60,226,28*79
$GPGSV,3,3,11,04,04,098,,09,80,102,35,27,63,111,37*49
$GPGGA,144420.0,5114.105235,N,00644.798363,E,1,06,3.2,79.5,M,,,,*33
$GPRMC,144420.0,A,5114.105235,N,00644.798363,E,27.1,140.7,070709,,,A*51
$GPGSA,A,3,09,12,15,17,26,27,,,,,,,5.2,3.2,4.1*38
$GPVTG,140.7,T,,M,27.1,N,50.2,K*61
$GPGSV,3,1,11,22,15,277,,18,08,244,,17,26,047,21,15,14,168,23*73
$GPGSV,3,2,11,12,58,240,31,30,24,243,23,14,26,313,24,26,60,226,30*72
$GPGSV,3,3,11,04,04,098,,09,80,102,34,27,63,111,35*4A
$GPGGA,144421.0,5114.099462,N,00644.806565,E,1,06,4.3,79.5,M,,,,*3C
$GPRMC,144421.0,A,5114.099462,N,00644.806565,E,28.1,137.1,070709,,,A*51
$GPGSA,A,3,09,12,15,17,26,27,,,,,,,7.7,4.3,6.3*39
$GPVTG,137.1,T,,M,28.1,N,52.0,K*68
$GPGSV,3,1,11,22,15,277,,18,08,244,,17,26,047,21,15,14,168,23*73
$GPGSV,3,2,11,12,58,240,26,30,24,243,20,14,26,313,28,26,60,226,27*7D
$GPGSV,3,3,11,04,04,098,,09,80,102,32,27,63,111,36*4F
$GPGGA,144422.0,5114.093767,N,00644.814929,E,1,06,4.1,79.0,M,,,,*33
$GPRMC,144422.0,A,5114.093767,N,00644.814929,E,27.8,137.9,070709,,,A*57
$GPGSA,A,3,09,12,15,17,26,27,,,,,,,7.4,4.1,6.2*39
$GPVTG,137.9,T,,M,27.8,N,51.5,K*60
$GPGSV,3,1,11,22,15,277,,18,08,244,,17,26,047,21,15,14,168,23*73
$GPGSV,3,2,11,12,58,240,34,30,24,243,20,14,26,313,23,26,60,226,34*77
$GPGSV,3,3,11,04,04,098,,09,80,102,34,27,63,111,36*49
$GPGGA,144423.0,5114.088202,N,00644.823388,E,1,06,4.4,79.5,M,,,,*3B
$GPRMC,144423.0,A,5114.088202,N,00644.823388,E,27.3,137.0,070709,,,A*5D
$GPGSA,A,3,09,12,15,17,26,27,,,,,,,8.0,4.4,6.7*32
$GPVTG,137.0,T,,M,27.3,N,50.6,K*60
$GPGSV,3,1,11,22,15,277,,18,08,244,,17,26,047,24,15,14,168,23*76
$GPGSV,3,2,11,12,58,240,34,30,24,243,20,14,26,313,29,26,60,226,35*7C
$GPGSV,3,3,11,04,04,098,,09,80,102,34,27,63,111,36*49
$GPGGA,144424.0,5114.083127,N,00644.831414,E,1,06,3.8,79.0,M,,,,*3C
$GPRMC,144424.0,A,5114.083127,N,00644.831414,E,26.1,136.2,070709,,,A*54
$GPGSA,A,3,09,12,15,17,26,27,,,,,,,6.6,3.8,5.4*31
$GPVTG,136.2,T,,M,26.1,N,48.4,K*6B
$GPGSV,3,1,11,22,15,277,,18,08,244,,17,26,047,26,15,14,168,23*74
$GPGSV,3,2,11,12,58,240,34,30,24,243,20,14,26,313,31,26,60,226,34*74
$GPGSV,3,3,11,04,04,098,,09,79,102,35,27,63,111,37*4F
$GPGGA,144425.0,5114.078626,N,00644.839079,E,1,05,3.7,79.0,M,,,,*34
$GPRMC,144425.0,A,5114.078626,N,00644.839079,E,24.2,136.2,070709,,,A*51
$GPGSA,A,3,09,12,17,26,27,,,,,,,,6.4,3.7,5.1*3D
$GPVTG,136.2,T,,M,24.2,N,44.8,K*6A
$GPGSV,3,1,11,22,15,277,,18,08,244,,17,26,047,28,15,14,168,23*7A
$GPGSV,3,2,11,12,58,240,35,30,24,243,20,14,26,313,32,26,60,226,35*77
$GPGSV,3,3,11,04,04,098,,09,79,102,36,27,63,111,36*4D
$GPGGA,144426.0,5114.074253,N,00644.846205,E,1,05,3.8,79.0,M,,,,*33
$GPRMC,144426.0,A,5114.074253,N,00644.846205,E,22.0,136.6,070709,,,A*59
$GPGSA,A,3,09,12,17,26,27,,,,,,,,6.4,3.8,5.1*32
$GPVTG,136.6,T,,M,22.0,N,40.8,K*6E
$GPGSV,3,1,11,22,15,275,,18,08,244,,17,26,047,26,15,14,168,22*77
$GPGSV,3,2,11,12,58,240,35,30,24,243,20,14,26,313,31,26,60,226,35*74
$GPGSV,3,3,11,04,04,098,,09,79,102,36,27,63,111,36*4D
$GPGGA,144427.0,5114.070270,N,00644.852300,E,1,05,3.9,79.0,M,,,,*37
$GPRMC,144427.0,A,5114.070270,N,00644.852300,E,19.0,139.2,070709,,,A*5F
$GPGSA,A,3,09,12,17,26,27,,,,,,,,6.6,3.9,5.3*33
$GPVTG,139.2,T,,M,19.0,N,35.2,K*65
$GPGSV,3,1,11,22,15,275,,18,08,244,,17,26,047,25,15,14,168,30*77
$GPGSV,3,2,11,12,58,240,35,30,24,243,20,14,26,313,32,26,60,226,34*76
$GPGSV,3,3,11,04,04,098,,09,79,102,35,27,63,111,35*4D
$GPGGA,144428.0,5114.065948,N,00644.857068,E,1,06,2.7,79.0,M,,,,*38
$GPRMC,144428.0,A,5114.065948,N,00644.857068,E,18.0,151.4,070709,,,A*55
$GPGSA,A,3,09,12,15,17,26,27,,,,,,,4.2,2.7,3.2*39
$GPVTG,151.4,T,,M,18.0,N,33.3,K*6B
$GPGSV,3,1,11,22,15,275,,18,08,244,,17,26,047,28,15,14,168,30*7A
$GPGSV,3,2,11,12,58,240,34,30,24,243,26,14,26,313,30,26,60,226,35*72
$GPGSV,3,3,11,04,04,098,,09,79,102,34,27,63,111,33*4A
$GPGGA,144429.0,5114.061276,N,00644.859814,E,1,06,2.1,78.5,M,,,,*34
$GPRMC,144429.0,A,5114.061276,N,00644.859814,E,18.3,167.5,070709,,,A*5C
$GPGSA,A,3,09,12,15,17,26,27,,,,,,,3.3,2.1,2.5*3F
$GPVTG,167.5,T,,M,18.3,N,33.9,K*66
$GPGSV,3,1,11,22,15,275,,18,08,244,,17,26,047,28,15,14,168,30*7A
$GPGSV,3,2,11,12,58,240,35,30,24,243,26,14,26,313,27,26,60,226,34*74
$GPGSV,3,3,11,04,04,098,,09,79,102,33,27,63,111,33*4D
$GPGGA,144430.0,5114.056161,N,00644.859980,E,1,06,2.2,78.5,M,,,,*32
$GPRMC,144430.0,A,5114.056161,N,00644.859980,E,18.8,182.6,070709,,,A*5A
$GPGSA,A,3,09,12,15,17,26,27,,,,,,,3.5,2.2,2.6*39
$GPVTG,182.6,T,,M,18.8,N,34.9,K*62
$GPGSV,3,1,11,22,15,275,,18,08,244,,17,26,047,29,15,14,168,20*7A
$GPGSV,3,2,11,12,58,240,34,30,24,243,26,14,26,313,20,26,60,226,36*70
$GPGSV,3,3,11,04,04,098,,09,79,102,31,27,63,111,35*49
$GPGGA,144431.0,5114.051046,N,00644.858571,E,1,06,2.8,78.5,M,,,,*39
$GPRMC,144431.0,A,5114.051046,N,00644.858571,E,18.9,191.9,070709,,,A*57
$GPGSA,A,3,09,12,15,17,26,27,,,,,,,4.5,2.8,3.5*36
$GPVTG,191.9,T,,M,18.9,N,35.1,K*67
$GPGSV,3,1,11,22,15,275,,18,08,244,,17,26,047,29,15,14,168,22*78
$GPGSV,3,2,11,12,58,240,34,30,24,243,26,14,26,313,21,26,60,226,34*73
$GPGSV,3,3,11,04,04,098,,09,79,102,32,27,63,111,33*4C
$GPGGA,144432.0,5114.045245,N,00644.856791,E,1,06,2.5,79.0,M,,,,*35
$GPRMC,144432.0,A,5114.045245,N,00644.856791,E,20.8,193.0,070709,,,A*53
$GPGSA,A,3,09,12,15,17,26,27,,,,,,,4.0,2.5,3.1*3A
$GPVTG,193.0,T,,M,20.8,N,38.5,K*6F
$GPGSV,3,1,11,22,15,275,,18,08,244,,17,26,047,28,15,14,168,25*7E
$GPGSV,3,2,11,12,58,240,36,30,24,243,26,14,26,313,24,26,60,226,36*76
$GPGSV,3,3,11,04,04,098,,09,79,102,31,27,63,111,33*4F
$GPGGA,144433.0,5114.039311,N,00644.854578,E,1,06,2.4,79.0,M,,,,*39
$GPRMC,144433.0,A,5114.039311,N,00644.854578,E,21.4,194.5,070709,,,A*51
$GPGSA,A,3,09,12,15,17,26,27,,,,,,,3.8,2.4,3.0*35
$GPVTG,194.5,T,,M,21.4,N,39.7,K*63
$GPGSV,3,1,11,22,15,275,18,18,08,244,,17,26,047,25,15,14,168,29*76
$GPGSV,3,2,11,12,58,240,35,30,24,243,26,14,26,313,20,26,60,226,35*72
$GPGSV,3,3,11,04,04,098,,09,79,102,30,27,63,111,32*4F
$GPGGA,144434.0,5114.033538,N,00644.852124,E,1,06,2.5,79.5,M,,,,*36
$GPRMC,144434.0,A,5114.033538,N,00644.852124,E,21.2,195.4,070709,,,A*5C
$GPGSA,A,3,09,12,15,17,26,27,,,,,,,4.0,2.5,3.1*3A
$GPVTG,195.4,T,,M,21.2,N,39.3,K*61
$GPGSV,3,1,11,22,15,275,18,18,08,244,,17,26,047,26,15,14,168,29*75
$GPGSV,3,2,11,12,58,240,37,30,24,243,26,14,26,313,20,26,60,226,36*73
$GPGSV,3,3,11,04,04,098,,09,79,102,31,27,63,111,30*4C
$GPGGA,144435.0,5114.027719,N,00644.849650,E,1,06,2.3,79.5,M,,,,*3B
$GPRMC,144435.0,A,5114.027719,N,00644.849650,E,21.9,194.7,070709,,,A*5E
$GPGSA,A,3,09,12,15,17,26,27,,,,,,,3.6,2.3,2.8*35
$GPVTG,194.7,T,,M,21.9,N,40.5,K*60
$GPGSV,3,1,11,22,15,275,18,18,08,244,,17,26,047,28,15,14,168,25*77
$GPGSV,3,2,11,12,58,240,37,30,24,243,26,14,26,313,21,26,60,226,36*72
$GPGSV,3,3,11,04,04,098,,09,79,102,30,27,63,111,23*4F
$GPGGA,144436.0,5114.021789,N,00644.847231,E,1,06,2.6,79.5,M,,,,*3F
$GPRMC,144436.0,A,5114.021789,N,00644.847231,E,21.7,194.8,070709,,,A*5E
$GPGSA,A,3,09,12,15,17,26,27,,,,,,,4.0,2.6,3.1*39
$GPVTG,194.8,T,,M,21.7,N,40.1,K*65
$GPGSV,3,1,11,22,15,275,18,18,08,244,,17,26,047,25,15,14,168,22*7D
$GPGSV,3,2,11,12,58,240,37,30,24,243,26,14,26,313,27,26,60,226,36*74
$GPGSV,3,3,11,04,04,098,,09,79,102,30,27,63,111,28*44
$GPGGA,144437.0,5114.016036,N,00644.844731,E,1,06,3.0,79.5,M,,,,*38
$GPRMC,144437.0,A,5114.016036,N,00644.844731,E,22.0,195.6,070709,,,A*55
$GPGSA,A,3,09,12,15,17,26,27,,,,,,,4.9,3.0,3.8*3E
$GPVTG,195.6,T,,M,22.0,N,40.7,K*68
$GPGSV,3,1,11,22,15,275,18,18,08,244,,17,26,047,23,15,14,168,22*7B
$GPGSV,3,2,11,12,58,240,36,30,24,243,,14,26,313,28,26,60,226,36*7E
$GPGSV,3,3,11,04,04,098,,09,79,102,30,27,63,111,33*4E
$GPGGA,144438.0,5114.010039,N,00644.842292,E,1,06,3.3,80.0,M,,,,*34
$GPRMC,144438.0,A,5114.010039,N,00644.842292,E,22.2,195.2,070709,,,A*5F
$GPGSA,A,3,09,12,15,17,26,27,,,,,,,5.5,3.3,4.3*3C
$GPVTG,195.2,T,,M,22.2,N,41.1,K*69
$GPGSV,3,1,11,22,15,275,18,18,08,244,,17,26,047,22,15,14,168,20*78
$GPGSV,3,2,11,12,58,240,36,30,24,243,24,14,26,313,22,26,60,226,36*72
$GPGSV,3,3,11,04,04,098,,09,79,102,30,27,63,111,33*4E
$GPGGA,144439.0,5114.004001,N,00644.839944,E,1,06,3.6,80.0,M,,,,*32
$GPRMC,144439.0,A,5114.004001,N,00644.839944,E,22.1,195.3,070709,,,A*5E
$GPGSA,A,3,09,12,15,17,26,27,,,,,,,6.1,3.6,4.9*34
$GPVTG,195.3,T,,M,22.1,N,40.9,K*62
$GPGSV,3,1,11,22,15,275,18,18,08,244,,17,26,047,22,15,14,168,22*7A
$GPGSV,3,2,11,12,58,240,28,30,24,243,25,14,26,313,21,26,60,226,33*7A
$GPGSV,3,3,11,04,04,098,,09,79,102,31,27,63,111,33*4F
$GPGGA,144440.0,5113.998452,N,00644.837278,E,1,06,3.0,80.0,M,,,,*39
$GPRMC,144440.0,A,5113.998452,N,00644.837278,E,21.3,195.7,070709,,,A*56
$GPGSA,A,3,09,12,15,17,26,27,,,,,,,4.7,3.0,3.6*3E
$GPVTG,195.7,T,,M,21.3,N,39.4,K*64
$GPGSV,3,1,11,22,15,275,18,18,08,244,,17,26,047,22,15,14,168,22*7A
$GPGSV,3,2,11,12,58,240,32,30,24,243,24,14,26,313,22,26,60,226,33*73
$GPGSV,3,3,11,04,04,098,,09,79,102,30,27,63,111,33*4E
$GPGGA,144441.0,5113.992889,N,00644.834899,E,1,06,3.0,80.0,M,,,,*3E
$GPRMC,144441.0,A,5113.992889,N,00644.834899,E,20.8,195.2,070709,,,A*5E
$GPGSA,A,3,09,12,15,17,26,27,,,,,,,4.9,3.0,3.8*3E
$GPVTG,195.2,T,,M,20.8,N,38.4,K*6A
$GPGSV,3,1,11,22,15,275,18,18,08,244,,17,26,047,22,15,14,168,21*79
$GPGSV,3,2,11,12,58,240,37,30,24,243,25,14,26,313,22,26,60,226,36*72
$GPGSV,3,3,11,04,04,098,,09,79,102,32,27,63,111,33*4C
$GPGGA,144442.0,5113.987307,N,00644.832470,E,1,06,9.8,80.0,M,,,,*3B
$GPRMC,144442.0,A,5113.987307,N,00644.832470,E,20.8,195.0,070709,,,A*5B
$GPGSA,A,3,09,12,15,17,26,27,,,,,,,16.8,9.8,13.6*31
$GPVTG,195.0,T,,M,20.8,N,38.6,K*6A
$GPGSV,3,1,11,22,15,275,18,18,08,244,,17,26,047,22,15,14,168,25*7D
$GPGSV,3,2,11,12,58,240,37,30,24,243,23,14,26,313,22,26,60,226,36*74
$GPGSV,3,3,11,04,04,098,,09,79,102,31,27,63,111,32*4E
$GPGGA,144443.0,5113.981901,N,00644.829971,E,1,06,9.6,80.0,M,,,,*38
$GPRMC,144443.0,A,5113.981901,N,00644.829971,E,20.4,196.3,070709,,,A*5A
$GPGSA,A,3,09,12,15,17,26,27,,,,,,,15.5,9.6,12.2*34
$GPVTG,196.3,T,,M,20.4,N,37.8,K*67
$GPGSV,3,1,11,22,15,275,18,18,08,244,,17,26,047,22,15,14,168,24*7C
$GPGSV,3,2,11,12,58,240,37,30,24,243,23,14,26,313,22,26,60,226,36*74
$GPGSV,3,3,11,04,04,098,,09,79,102,30,27,63,111,32*4F
$GPGGA,144444.0,5113.976600,N,00644.827532,E,1,06,9.1,80.0,M,,,,*3B
$GPRMC,144444.0,A,5113.976600,N,00644.827532,E,19.9,196.6,070709,,,A*5C
$GPGSA,A,3,09,12,15,17,26,27,,,,,,,15.0,9.1,11.9*3E
$GPVTG,196.6,T,,M,19.9,N,36.9,K*65
$GPGSV,3,1,11,22,15,275,18,18,08,244,,17,26,047,22,15,14,168,20*78
$GPGSV,3,2,11,12,58,240,37,30,24,243,24,14,26,313,21,26,60,226,36*70
$GPGSV,3,3,11,04,04,098,,09,79,102,31,27,63,111,33*4F
$GPGGA,144445.0,5113.971367,N,00644.825183,E,1,06,8.7,79.5,M,,,,*31
$GPRMC,144445.0,A,5113.971367,N,00644.825183,E,19.2,195.4,070709,,,A*58
$GPGSA,A,3,09,12,15,17,26,27,,,,,,,15.4,8.7,12.7*30
$GPVTG,195.4,T,,M,19.2,N,35.6,K*63
$GPGSV,3,1,11,22,15,275,18,18,08,244,,17,26,047,22,15,14,168,20*78
$GPGSV,3,2,11,12,58,240,32,30,24,243,25,14,26,313,21,26,60,226,34*76
$GPGSV,3,3,11,04,04,098,,09,79,102,32,27,63,111,33*4C
$GPGGA,144446.0,5113.966625,N,00644.822935,E,1,05,9.1,79.5,M,,,,*31
$GPRMC,144446.0,A,5113.966625,N,00644.822935,E,18.0,196.7,070709,,,A*5F
$GPGSA,A,3,09,12,15,26,27,,,,,,,,16.0,9.1,13.1*31
$GPVTG,196.7,T,,M,18.0,N,33.4,K*64
$GPGSV,3,1,11,22,15,275,18,18,08,244,,17,26,047,22,15,14,168,21*79
$GPGSV,3,2,11,12,58,240,37,30,24,243,22,14,26,313,21,26,60,226,37*77
$GPGSV,3,3,11,04,04,098,,09,79,102,31,27,63,111,33*4F
$GPGGA,144447.0,5113.962227,N,00644.820948,E,1,05,8.9,79.5,M,,,,*33
$GPRMC,144447.0,A,5113.962227,N,00644.820948,E,16.3,193.4,070709,,,A*5F
$GPGSA,A,3,09,12,15,26,27,,,,,,,,15.7,8.9,12.9*35
$GPVTG,193.4,T,,M,16.3,N,30.3,K*6B
$GPGSV,3,1,11,22,15,275,18,18,08,244,,17,26,047,22,15,14,168,21*79
$GPGSV,3,2,11,12,58,240,37,30,24,243,24,14,26,313,21,26,60,226,37*71
$GPGSV,3,3,11,04,04,098,,09,79,102,31,27,63,111,33*4F
$GPGGA,144448.0,5113.958073,N,00644.819490,E,1,05,8.7,79.5,M,,,,*3A
$GPRMC,144448.0,A,5113.958073,N,00644.819490,E,15.3,191.7,070709,,,A*5A
$GPGSA,A,3,09,12,15,26,27,,,,,,,,15.4,8.7,12.7*36
$GPVTG,191.7,T,,M,15.3,N,28.3,K*60
$GPGSV,3,1,11,22,15,275,18,18,08,244,,17,26,047,22,15,14,168,21*79
$GPGSV,3,2,11,12,58,240,37,30,24,243,26,14,26,313,22,26,60,226,36*71
$GPGSV,3,3,11,04,04,098,,09,79,102,31,27,63,111,34*48
$GPGGA,144449.0,5113.954736,N,00644.818062,E,1,05,8.6,79.5,M,,,,*38
$GPRMC,144449.0,A,5113.954736,N,00644.818062,E,13.2,191.0,070709,,,A*59
$GPGSA,A,3,09,12,15,26,27,,,,,,,,15.5,8.6,12.9*38
$GPVTG,191.0,T,,M,13.2,N,24.5,K*6A
$GPGSV,3,1,11,22,15,275,18,18,08,244,,17,26,047,21,15,14,168,23*78
