$GPGGA,000000.000,0000.0000,N,00000.0000,E,0,00,0.0,0.0,M,0.0,M,,*6D
$GPRMC,000000.000,V,0000.0000,N,00000.0000,E,0.0,0.0,000000,,,N*76
$GPGLL,0000.0000,N,00000.0000,E,000000.000,V,N*41
$GPGSA,A,1,,,,,,,,,,,,,,0.0,*30
$GPVTG,0.0,T,,M,0.0,N,0.0,K,N*02
$GPGSV,3,1,10,01,00,000,39,07,00,000,36,08,00,000,35,11,00,000,32*7C
$GPGSV,3,2,10,19,00,000,33,24,00,000,38,28,00,000,36,03,00,000,3*43
$GPGSV,3,3,10,17,00,000,29,22,00,000,25*72
$GPGGA,000000.000,0000.0000,N,00000.0000,E,0,00,0.0,0.0,M,0.0,M,,*6D
$GPRMC,000000.000,V,0000.0000,N,00000.0000,E,0.0,0.0,000000,,,N*76
$GPGLL,0000.0000,N,00000.0000,E,000000.000,V,N*41
$GPGSA,A,1,,,,,,,,,,,,,,0.0,*30
$GPVTG,0.0,T,,M,0.0,N,0.0,K,N*02
$GPGSV,3,1,10,01,00,000,39,07,00,000,36,08,00,000,35,11,00,000,32*7C
$GPGSV,3,2,10,19,00,000,33,24,00,000,39,28,00,000,36,03,00,000,3*42
$GPGSV,3,3,10,17,00,000,26,22,00,000,26*7E
$GPGGA,000000.000,0000.0000,N,00000.0000,E,0,00,0.0,0.0,M,0.0,M,,*6D
$GPRMC,000000.000,V,0000.0000,N,00000.0000,E,0.0,0.0,000000,,,N*76
$GPGLL,0000.0000,N,00000.0000,E,000000.000,V,N*41
$GPGSA,A,1,,,,,,,,,,,,,,0.0,*30
$GPVTG,0.0,T,,M,0.0,N,0.0,K,N*02
$GPGSV,3,1,10,01,00,000,39,07,00,000,36,08,00,000,35,11,00,000,32*7C
$GPGSV,3,2,10,19,00,000,33,24,00,000,38,28,00,000,36,03,00,000,3*43
$GPGSV,3,3,10,17,00,000,27,22,00,000,26*7F
$GPGGA,054452.326,0000.0000,N,00000.0000,E,0,00,0.0,0.0,M,0.0,M,,*68
$GPRMC,054452.326,V,0000.0000,N,00000.0000,E,0.0,0.0,150911,,,N*7E
$GPGLL,0000.0000,N,00000.0000,E,054452.326,V,N*44
$GPGSA,A,1,,,,,,,,,,,,,,0.0,*30
$GPVTG,0.0,T,,M,0.0,N,0.0,K,N*02
$GPGSV,3,1,10,01,00,000,39,07,45,163,36,08,72,186,35,11,40,061,32*70
$GPGSV,3,2,10,19,10,051,33,24,48,105,38,28,57,318,36,03,00,061,3*41
$GPGSV,3,3,10,17,36,241,28,22,00,025,26*75
$GPGGA,054453.326,0000.0000,N,00000.0000,E,0,00,0.0,0.0,M,0.0,M,,*69
$GPRMC,054453.326,V,0000.0000,N,00000.0000,E,0.0,0.0,150911,,,N*7F
$GPGLL,0000.0000,N,00000.0000,E,054453.326,V,N*45
$GPGSA,A,1,,,,,,,,,,,,,,0.0,*30
$GPVTG,0.0,T,,M,0.0,N,0.0,K,N*02
$GPGSV,3,1,10,01,00,000,39,07,45,163,36,08,72,186,35,11,40,061,32*70
$GPGSV,3,2,10,19,10,051,33,24,48,105,38,28,57,318,36,03,00,061,3*41
$GPGSV,3,3,10,17,36,241,28,22,00,025,25*76
$GPGGA,054454.326,0000.0000,N,00000.0000,E,0,00,0.0,0.0,M,0.0,M,,*6E
$GPRMC,054454.326,V,0000.0000,N,00000.0000,E,0.0,0.0,150911,,,N*78
$GPGLL,0000.0000,N,00000.0000,E,054454.326,V,N*42
$GPGSA,A,1,,,,,,,,,,,,,,0.0,*30
$GPVTG,0.0,T,,M,0.0,N,0.0,K,N*02
$GPGSV,3,1,10,01,00,000,39,07,45,163,35,08,72,186,35,11,40,061,32*73
$GPGSV,3,2,10,19,10,051,33,24,48,105,38,28,57,318,36,03,00,061,2*40
$GPGSV,3,3,10,17,36,241,28,22,00,025,25*76
$GPGGA,054455.326,0000.0000,N,00000.0000,E,0,00,0.0,0.0,M,0.0,M,,*6F
$GPRMC,054455.326,V,0000.0000,N,00000.0000,E,0.0,0.0,150911,,,N*79
$GPGLL,0000.0000,N,00000.0000,E,054455.326,V,N*43
$GPGSA,A,1,,,,,,,,,,,,,,0.0,*30
$GPVTG,0.0,T,,M,0.0,N,0.0,K,N*02
$GPGSV,3,1,10,01,00,000,40,07,45,163,35,08,72,186,35,11,40,061,32*7D
$GPGSV,3,2,10,19,10,051,33,24,48,105,38,28,57,318,36,03,00,061,2*40
$GPGSV,3,3,10,17,36,241,27,22,00,025,25*79
$GPGGA,054456.326,0000.0000,N,00000.0000,E,0,00,0.0,0.0,M,0.0,M,,*6C
$GPRMC,054456.326,V,0000.0000,N,00000.0000,E,0.0,0.0,150911,,,N*7A
$GPGLL,0000.0000,N,00000.0000,E,054456.326,V,N*40
$GPGSA,A,1,,,,,,,,,,,,,,0.0,*30
$GPVTG,0.0,T,,M,0.0,N,0.0,K,N*02
$GPGSV,3,1,10,01,00,000,40,07,45,163,35,08,72,186,35,11,40,061,33*7C
$GPGSV,3,2,10,19,10,051,33,24,48,105,38,28,57,318,36,03,00,061,2*40
$GPGSV,3,3,10,17,36,241,28,22,00,025,25*76
$GPGGA,054457.326,0000.0000,N,00000.0000,E,0,00,0.0,0.0,M,0.0,M,,*6D
$GPRMC,054457.326,V,0000.0000,N,00000.0000,E,0.0,0.0,150911,,,N*7B
$GPGLL,0000.0000,N,00000.0000,E,054457.326,V,N*41
$GPGSA,A,1,,,,,,,,,,,,,,0.0,*30
$GPVTG,0.0,T,,M,0.0,N,0.0,K,N*02
$GPGSV,3,1,10,01,00,000,40,07,45,163,35,08,72,186,35,11,40,061,33*7C
$GPGSV,3,2,10,19,10,051,33,24,48,105,38,28,57,318,36,03,00,061,2*40
$GPGSV,3,3,10,17,36,241,28,22,00,025,25*76
$GPGGA,054458.326,0000.0000,N,00000.0000,E,0,00,0.0,0.0,M,0.0,M,,*62
$GPRMC,054458.326,V,0000.0000,N,00000.0000,E,0.0,0.0,150911,,,N*74
$GPGLL,0000.0000,N,00000.0000,E,054458.326,V,N*4E
$GPGSA,A,1,,,,,,,,,,,,,,0.0,*30
$GPVTG,0.0,T,,M,0.0,N,0.0,K,N*02
$GPGSV,3,1,10,01,00,000,40,07,45,163,35,08,72,186,35,11,40,061,33*7C
$GPGSV,3,2,10,19,10,051,33,24,48,105,38,28,57,318,36,03,00,061,2*40
$GPGSV,3,3,10,17,36,241,28,22,00,025,25*76
$GPGGA,054459.329,0000.0000,N,00000.0000,E,0,00,0.0,0.0,M,0.0,M,,*6C
$GPRMC,054459.329,V,0000.0000,N,00000.0000,E,0.0,0.0,150911,,,N*7A
$GPGLL,0000.0000,N,00000.0000,E,054459.329,V,N*40
$GPGSA,A,1,,,,,,,,,,,,,,0.0,*30
$GPVTG,0.0,T,,M,0.0,N,0.0,K,N*02
$GPGSV,3,1,10,01,00,000,40,07,45,163,36,08,72,186,35,11,40,061,33*7F
$GPGSV,3,2,10,19,10,051,33,24,48,105,38,28,57,318,36,03,00,061,2*40
$GPGSV,3,3,10,17,36,241,28,22,00,025,25*76
$GPGGA,054500.326,0000.0000,N,00000.0000,E,0,00,0.0,0.0,M,0.0,M,,*6E
$GPRMC,054500.326,V,0000.0000,N,00000.0000,E,0.0,0.0,150911,,,N*78
$GPGLL,0000.0000,N,00000.0000,E,054500.326,V,N*42
$GPGSA,A,1,,,,,,,,,,,,,,0.0,*30
$GPVTG,0.0,T,,M,0.0,N,0.0,K,N*02
$GPGSV,3,1,09,01,00,000,40,07,45,163,36,08,72,186,35,11,40,061,33*77
$GPGSV,3,2,09,19,10,051,33,24,48,105,38,28,57,318,36,17,36,241,2*48
$GPGSV,3,3,09,22,00,025,25*40
$GPGGA,054501.326,0000.0000,N,00000.0000,E,0,00,0.0,0.0,M,0.0,M,,*6F
$GPRMC,054501.326,V,0000.0000,N,00000.0000,E,0.0,0.0,150911,,,N*79
$GPGLL,0000.0000,N,00000.0000,E,054501.326,V,N*43
$GPGSA,A,1,,,,,,,,,,,,,,0.0,*30
$GPVTG,0.0,T,,M,0.0,N,0.0,K,N*02
$GPGSV,3,1,09,01,00,000,40,07,45,163,36,08,72,186,35,11,40,061,33*77
$GPGSV,3,2,09,19,10,051,33,24,48,105,38,28,57,318,36,17,36,241,2*48
$GPGSV,3,3,09,22,00,025,25*40
$GPGGA,054502.326,0000.0000,N,00000.0000,E,0,00,0.0,0.0,M,0.0,M,,*6C
$GPRMC,054502.326,V,0000.0000,N,00000.0000,E,0.0,0.0,150911,,,N*7A
$GPGLL,0000.0000,N,00000.0000,E,054502.326,V,N*40
$GPGSA,A,1,,,,,,,,,,,,,,0.0,*30
$GPVTG,0.0,T,,M,0.0,N,0.0,K,N*02
$GPGSV,3,1,09,01,00,000,40,07,45,163,36,08,72,186,35,11,40,061,33*77
$GPGSV,3,2,09,19,10,051,33,24,48,105,38,28,57,318,36,17,36,241,2*48
$GPGSV,3,3,09,22,00,025,24*41
$GPGGA,054503.326,0000.0000,N,00000.0000,E,0,00,0.0,0.0,M,0.0,M,,*6D
$GPRMC,054503.326,V,0000.0000,N,00000.0000,E,0.0,0.0,150911,,,N*7B
$GPGLL,0000.0000,N,00000.0000,E,054503.326,V,N*41
$GPGSA,A,1,,,,,,,,,,,,,,0.0,*30
$GPVTG,0.0,T,,M,0.0,N,0.0,K,N*02
$GPGSV,3,1,09,01,00,000,40,07,45,163,36,08,72,186,35,11,40,061,33*77
$GPGSV,3,2,09,19,10,051,33,24,48,105,39,28,57,318,36,17,36,241,2*49
$GPGSV,3,3,09,22,00,025,24*41
$GPGGA,054504.324,3715.2199,N,12703.2972,E,1,05,1.6,37.8,M,19.9,M,,*6C
$GPRMC,054504.324,A,3715.2199,N,12703.2972,E,0.5,130.1,150911,,,A*6A
$GPGLL,3715.2199,N,12703.2972,E,054504.324,A,A*56
$GPGSA,A,3,07,11,19,24,28,,,,,,,,,1.6,*36
$GPVTG,130.1,T,,M,0.5,N,1.0,K,A*0A
$GPGSV,3,1,09,01,00,000,40,07,44,163,36,08,72,186,35,11,50,073,33*74
$GPGSV,3,2,09,19,14,051,33,24,47,093,39,28,57,318,36,17,36,241,2*4C
$GPGSV,3,3,09,22,00,025,24*41
$GPGGA,054505.324,3715.2202,N,12703.2978,E,1,05,1.6,29.6,M,19.9,M,,*67
$GPRMC,054505.324,A,3715.2202,N,12703.2978,E,0.3,130.1,150911,,,A*66
$GPGLL,3715.2202,N,12703.2978,E,054505.324,A,A*5C
$GPGSA,A,3,07,11,19,24,28,,,,,,,,,1.6,*36
$GPVTG,130.1,T,,M,0.3,N,0.5,K,A*08
$GPGSV,3,1,09,01,00,000,40,07,39,219,36,08,48,259,35,11,82,054,33*72
$GPGSV,3,2,09,19,37,058,33,24,78,150,39,28,33,313,36,17,08,268,2*49
$GPGSV,3,3,09,22,07,042,24*47
$GPGGA,054506.000,3715.2201,N,12703.2978,E,1,05,1.6,29.6,M,19.9,M,,*62
$GPRMC,054506.000,A,3715.2201,N,12703.2978,E,0.1,130.1,150911,,,A*61
$GPGLL,3715.2201,N,12703.2978,E,054506.000,A,A*59
$GPGSA,A,3,07,11,19,24,28,,,,,,,,,1.6,*36
$GPVTG,130.1,T,,M,0.1,N,0.1,K,A*0E
$GPGSV,3,1,09,01,00,000,40,07,39,219,35,08,48,259,35,11,82,054,33*71
$GPGSV,3,2,09,19,37,058,33,24,78,150,39,28,33,313,37,17,08,268,2*48
$GPGSV,3,3,09,22,07,042,25*46
$GPGGA,054507.000,3715.2199,N,12703.2981,E,1,05,1.6,28.3,M,19.9,M,,*63
$GPRMC,054507.000,A,3715.2199,N,12703.2981,E,0.0,130.1,150911,,,A*65
$GPGLL,3715.2199,N,12703.2981,E,054507.000,A,A*5C
$GPGSA,A,3,07,11,19,24,28,,,,,,,,,1.6,*36
$GPVTG,130.1,T,,M,0.0,N,0.0,K,A*0E
$GPGSV,3,1,09,01,00,000,40,07,39,219,35,08,48,259,35,11,82,054,33*71
$GPGSV,3,2,09,19,37,058,32,24,78,150,39,28,33,313,37,17,08,268,2*49
$GPGSV,3,3,09,22,07,042,25*46
$GPGGA,054508.000,3715.2199,N,12703.2981,E,1,05,1.6,28.3,M,19.9,M,,*6C
$GPRMC,054508.000,A,3715.2199,N,12703.2981,E,0.0,130.1,150911,,,A*6A
$GPGLL,3715.2199,N,12703.2981,E,054508.000,A,A*53
$GPGSA,A,3,07,11,19,24,28,,,,,,,,,1.6,*36
$GPVTG,130.1,T,,M,0.0,N,0.0,K,A*0E
$GPGSV,3,1,09,01,00,000,40,07,39,219,35,08,48,259,35,11,82,054,33*71
$GPGSV,3,2,09,19,37,058,32,24,78,150,39,28,33,313,37,17,08,268,2*49
$GPGSV,3,3,09,22,07,042,25*46
$GPGGA,054509.000,3715.2199,N,12703.2981,E,1,05,1.6,28.3,M,19.9,M,,*6D
$GPRMC,054509.000,A,3715.2199,N,12703.2981,E,0.0,130.1,150911,,,A*6B
$GPGLL,3715.2199,N,12703.2981,E,054509.000,A,A*52
$GPGSA,A,3,07,11,19,24,28,,,,,,,,,1.6,*36
$GPVTG,130.1,T,,M,0.0,N,0.0,K,A*0E
$GPGSV,1,6,,,,,,,,,,,,,0.0*50
$GPGGA,054510.000,3715.2199,N,12703.2981,E,1,05,1.6,28.3,M,19.9,M,,*65
$GPRMC,054510.000,A,3715.2199,N,12703.2981,E,0.0,130.1,150911,,,A*63
$GPGLL,3715.2199,N,12703.2981,E,054510.000,A,A*5A
$GPGSA,A,3,07,11,19,24,28,,,,,,,,,1.6,*36
$GPVTG,130.1,T,,M,0.0,N,0.0,K,A*0E
$GPGSV,3,1,09,01,00,000,40,07,39,219,38,08,48,259,35,11,82,054,34*7B
$GPGSV,3,2,09,19,37,058,31,24,78,150,38,28,33,313,38,17,08,268,3*45
$GPGSV,3,3,09,22,07,042,25*46
$GPGGA,054511.000,3715.2199,N,12703.2981,E,1,05,1.6,28.3,M,19.9,M,,*64
$GPRMC,054511.000,A,3715.2199,N,12703.2981,E,0.0,130.1,150911,,,A*62
$GPGLL,3715.2199,N,12703.2981,E,054511.000,A,A*5B
$GPGSA,A,3,07,11,19,24,28,,,,,,,,,1.6,*36
$GPVTG,130.1,T,,M,0.0,N,0.0,K,A*0E
$GPGSV,1,6,,,,,,,,,,,,,0.0*50
$GPGGA,054512.000,3715.2199,N,12703.2981,E,1,05,1.6,28.3,M,19.9,M,,*67
$GPRMC,054512.000,A,3715.2199,N,12703.2981,E,0.0,130.1,150911,,,A*61
$GPGLL,3715.2199,N,12703.2981,E,054512.000,A,A*58
$GPGSA,A,3,07,11,19,24,28,,,,,,,,,1.6,*36
$GPVTG,130.1,T,,M,0.0,N,0.0,K,A*0E
$GPGSV,3,1,10,01,00,000,40,07,39,219,34,08,48,259,37,11,82,054,35*7C
$GPGSV,3,2,10,19,37,058,31,24,78,150,37,28,33,313,35,03,11,081,2*46
$GPGSV,3,3,10,17,08,268,31,22,07,042,24*7F
$GPGGA,054513.000,3715.2199,N,12703.2981,E,1,05,1.6,28.3,M,19.9,M,,*66
$GPRMC,054513.000,A,3715.2199,N,12703.2981,E,0.0,130.1,150911,,,A*60
$GPGLL,3715.2199,N,12703.2981,E,054513.000,A,A*59
$GPGSA,A,3,07,11,19,24,28,,,,,,,,,1.6,*36
$GPVTG,130.1,T,,M,0.0,N,0.0,K,A*0E
$GPGSV,3,1,10,01,00,000,40,07,39,219,35,08,48,259,36,11,82,054,35*7C
$GPGSV,3,2,10,19,37,058,31,24,78,150,37,28,33,313,34,03,11,081,2*47
$GPGSV,3,3,10,17,08,268,30,22,07,042,25*7F
$GPGGA,054514.000,3715.2199,N,12703.2981,E,1,05,1.6,28.3,M,19.9,M,,*61
$GPRMC,054514.000,A,3715.2199,N,12703.2981,E,0.0,130.1,150911,,,A*67
$GPGLL,3715.2199,N,12703.2981,E,054514.000,A,A*5E
$GPGSA,A,3,07,11,19,24,28,,,,,,,,,1.6,*36
$GPVTG,130.1,T,,M,0.0,N,0.0,K,A*0E
$GPGSV,3,1,10,01,00,000,40,07,39,219,36,08,48,259,36,11,82,054,35*7F
$GPGSV,3,2,10,19,37,058,32,24,78,150,37,28,33,313,35,03,11,081,2*45
$GPGSV,3,3,10,17,08,268,30,22,07,042,26*7C
$GPGGA,054515.000,3715.2199,N,12703.2981,E,1,05,1.6,28.3,M,19.9,M,,*60
$GPRMC,054515.000,A,3715.2199,N,12703.2981,E,0.0,130.1,150911,,,A*66
$GPGLL,3715.2199,N,12703.2981,E,054515.000,A,A*5F
$GPGSA,A,3,07,11,19,24,28,,,,,,,,,1.6,*36
$GPVTG,130.1,T,,M,0.0,N,0.0,K,A*0E
$GPGSV,3,1,10,01,00,000,40,07,39,219,36,08,48,259,36,11,82,054,35*7F
$GPGSV,3,2,10,19,37,058,33,24,78,150,37,28,33,313,35,03,11,081,2*44
$GPGSV,3,3,10,17,08,268,30,22,07,042,27*7D
$GPGGA,054516.000,3715.2199,N,12703.2981,E,1,05,1.6,28.3,M,19.9,M,,*63
$GPRMC,054516.000,A,3715.2199,N,12703.2981,E,0.0,130.1,150911,,,A*65
$GPGLL,3715.2199,N,12703.2981,E,054516.000,A,A*5C
$GPGSA,A,3,07,11,19,24,28,,,,,,,,,1.6,*36
$GPVTG,130.1,T,,M,0.0,N,0.0,K,A*0E
$GPGSV,3,1,10,01,00,000,40,07,39,219,37,08,48,259,36,11,82,054,35*7E
$GPGSV,3,2,10,19,37,058,33,24,78,150,36,28,33,313,35,03,11,081,2*45
$GPGSV,3,3,10,17,08,268,31,22,07,042,27*7C
$GPGGA,054517.000,3715.2199,N,12703.2981,E,1,05,1.6,28.3,M,19.9,M,,*62
$GPRMC,054517.000,A,3715.2199,N,12703.2981,E,0.0,130.1,150911,,,A*64
$GPGLL,3715.2199,N,12703.2981,E,054517.000,A,A*5D
$GPGSA,A,3,07,11,19,24,28,,,,,,,,,1.6,*36
$GPVTG,130.1,T,,M,0.0,N,0.0,K,A*0E
$GPGSV,3,1,10,01,00,000,40,07,39,219,37,08,48,259,36,11,82,054,35*7E
$GPGSV,3,2,10,19,37,058,33,24,78,150,36,28,33,313,35,03,11,081,2*45
$GPGSV,3,3,10,17,08,268,31,22,07,042,27*7C
$GPGGA,054518.000,3715.2199,N,12703.2981,E,1,05,1.6,28.3,M,19.9,M,,*6D
$GPRMC,054518.000,A,3715.2199,N,12703.2981,E,0.0,130.1,150911,,,A*6B
$GPGLL,3715.2199,N,12703.2981,E,054518.000,A,A*52
$GPGSA,A,3,07,11,19,24,28,,,,,,,,,1.6,*36
$GPVTG,130.1,T,,M,0.0,N,0.0,K,A*0E
$GPGSV,3,1,10,01,00,000,40,07,39,219,37,08,48,259,35,11,82,054,35*7D
$GPGSV,3,2,10,19,37,058,33,24,78,150,36,28,33,313,35,03,11,081,2*45
$GPGSV,3,3,10,17,08,268,31,22,07,042,27*7C
$GPGGA,054519.000,3715.2199,N,12703.2981,E,1,05,1.6,28.3,M,19.9,M,,*6C
$GPRMC,054519.000,A,3715.2199,N,12703.2981,E,0.0,130.1,150911,,,A*6A
$GPGLL,3715.2199,N,12703.2981,E,054519.000,A,A*53
$GPGSA,A,3,07,11,19,24,28,,,,,,,,,1.6,*36
$GPVTG,130.1,T,,M,0.0,N,0.0,K,A*0E
$GPGSV,3,1,10,01,00,000,40,07,39,219,37,08,48,259,35,11,82,054,35*7D
$GPGSV,3,2,10,19,37,058,33,24,78,150,36,28,33,313,35,03,11,081,2*45
$GPGSV,3,3,10,17,08,268,31,22,07,042,27*7C
$GPGGA,054520.000,3715.2199,N,12703.2981,E,1,05,1.6,28.3,M,19.9,M,,*66
$GPRMC,054520.000,A,3715.2199,N,12703.2981,E,0.0,130.1,150911,,,A*60
$GPGLL,3715.2199,N,12703.2981,E,054520.000,A,A*59
$GPGSA,A,3,07,11,19,24,28,,,,,,,,,1.6,*36
$GPVTG,130.1,T,,M,0.0,N,0.0,K,A*0E
$GPGSV,3,1,10,01,00,000,40,07,39,219,37,08,48,259,35,11,82,054,35*7D
$GPGSV,3,2,10,19,37,058,34,24,78,150,36,28,33,313,35,03,11,081,2*42
$GPGSV,3,3,10,17,08,268,31,22,07,042,27*7C
$GPGGA,054521.000,3715.2199,N,12703.2981,E,1,05,1.6,28.3,M,19.9,M,,*67
$GPRMC,054521.000,A,3715.2199,N,12703.2981,E,0.0,130.1,150911,,,A*61
$GPGLL,3715.2199,N,12703.2981,E,054521.000,A,A*58
$GPGSA,A,3,07,11,19,24,28,,,,,,,,,1.6,*36
$GPVTG,130.1,T,,M,0.0,N,0.0,K,A*0E
$GPGSV,3,1,10,01,00,000,40,07,39,219,37,08,48,259,35,11,82,054,35*7D
$GPGSV,3,2,10,19,37,058,34,24,78,150,36,28,33,313,35,03,11,081,2*42
$GPGSV,3,3,10,17,08,268,31,22,07,042,27*7C
$GPGGA,054522.000,3715.2199,N,12703.2981,E,1,05,1.6,28.3,M,19.9,M,,*64
$GPRMC,054522.000,A,3715.2199,N,12703.2981,E,0.0,130.1,150911,,,A*62
$GPGLL,3715.2199,N,12703.2981,E,054522.000,A,A*5B
$GPGSA,A,3,07,11,19,24,28,,,,,,,,,1.6,*36
$GPVTG,130.1,T,,M,0.0,N,0.0,K,A*0E
$GPGSV,3,1,10,01,00,000,40,07,39,219,36,08,48,259,35,11,82,054,35*7C
$GPGSV,3,2,10,19,37,058,34,24,78,150,36,28,33,313,35,03,11,081,3*43
$GPGSV,3,3,10,17,08,268,31,22,07,042,27*7C
$GPGGA,054523.000,3715.2199,N,12703.2981,E,1,05,1.6,28.3,M,19.9,M,,*65
$GPRMC,054523.000,A,3715.2199,N,12703.2981,E,0.0,130.1,150911,,,A*63
$GPGLL,3715.2199,N,12703.2981,E,054523.000,A,A*5A
$GPGSA,A,3,07,11,19,24,28,,,,,,,,,1.6,*36
$GPVTG,130.1,T,,M,0.0,N,0.0,K,A*0E
$GPGSV,3,1,10,01,00,000,40,07,39,219,36,08,48,259,35,11,82,054,35*7C
$GPGSV,3,2,10,19,37,058,34,24,78,150,36,28,33,313,35,03,11,081,3*43
$GPGSV,3,3,10,17,08,268,31,22,07,042,27*7C
$GPGGA,054524.000,3715.2199,N,12703.2981,E,1,07,1.4,28.3,M,19.9,M,,*62
$GPRMC,054524.000,A,3715.2199,N,12703.2981,E,0.0,130.1,150911,,,A*64
$GPGLL,3715.2199,N,12703.2981,E,054524.000,A,A*5D
$GPGSA,A,3,07,08,11,17,19,24,28,,,,,,,1.4,*3A
$GPVTG,130.1,T,,M,0.0,N,0.0,K,A*0E
$GPGSV,3,1,10,01,00,000,40,07,39,219,36,08,48,259,35,11,81,054,35*7F
$GPGSV,3,2,10,19,37,058,34,24,79,148,36,28,33,313,35,03,11,081,3*4B
$GPGSV,3,3,10,17,07,268,31,22,07,042,27*73
$GPGGA,054525.000,3715.2199,N,12703.2981,E,1,07,1.4,28.3,M,19.9,M,,*63
$GPRMC,054525.000,A,3715.2199,N,12703.2981,E,0.0,130.1,150911,,,A*65
$GPGLL,3715.2199,N,12703.2981,E,054525.000,A,A*5C
$GPGSA,A,3,07,08,11,17,19,24,28,,,,,,,1.4,*3A
$GPVTG,130.1,T,,M,0.0,N,0.0,K,A*0E
$GPGSV,3,1,10,01,00,000,40,07,39,219,36,08,48,259,35,11,81,054,35*7F
$GPGSV,3,2,10,19,37,058,34,24,79,148,36,28,33,313,35,03,11,081,3*4B
$GPGSV,3,3,10,17,07,268,31,22,07,042,27*73
$GPGGA,054526.000,3715.2199,N,12703.2981,E,1,07,1.4,28.3,M,19.9,M,,*60
$GPRMC,054526.000,A,3715.2199,N,12703.2981,E,0.0,130.1,150911,,,A*66
$GPGLL,3715.2199,N,12703.2981,E,054526.000,A,A*5F
$GPGSA,A,3,07,08,11,17,19,24,28,,,,,,,1.4,*3A
$GPVTG,130.1,T,,M,0.0,N,0.0,K,A*0E
$GPGSV,3,1,10,01,00,000,40,07,39,219,36,08,48,259,36,11,81,054,35*7C
$GPGSV,3,2,10,19,37,058,34,24,79,148,36,28,33,313,35,03,11,081,3*4B
$GPGSV,3,3,10,17,07,268,31,22,07,042,27*73
$GPGGA,054527.000,3715.2199,N,12703.2981,E,1,07,1.4,28.3,M,19.9,M,,*61
$GPRMC,054527.000,A,3715.2199,N,12703.2981,E,0.0,130.1,150911,,,A*67
$GPGLL,3715.2199,N,12703.2981,E,054527.000,A,A*5E
$GPGSA,A,3,07,08,11,17,19,24,28,,,,,,,1.4,*3A
$GPVTG,130.1,T,,M,0.0,N,0.0,K,A*0E
$GPGSV,3,1,10,01,00,000,40,07,39,219,36,08,48,259,36,11,81,054,35*7C
$GPGSV,3,2,10,19,37,058,34,24,79,148,36,28,33,313,35,03,11,081,3*4B
$GPGSV,3,3,10,17,07,268,32,22,07,042,27*70
$GPGGA,054528.000,3715.2199,N,12703.2981,E,1,08,1.4,28.3,M,19.9,M,,*61
$GPRMC,054528.000,A,3715.2199,N,12703.2981,E,0.0,130.1,150911,,,A*68
$GPGLL,3715.2199,N,12703.2981,E,054528.000,A,A*51
$GPGSA,A,3,07,08,11,17,19,22,24,28,,,,,,1.4,*3A
$GPVTG,130.1,T,,M,0.0,N,0.0,K,A*0E
$GPGSV,3,1,10,01,00,000,40,07,38,219,36,08,48,259,36,11,81,054,35*7D
$GPGSV,3,2,10,19,37,058,34,24,79,148,36,28,33,313,35,03,11,081,3*4B
$GPGSV,3,3,10,17,07,268,32,22,06,040,27*73
$GPGGA,054529.000,3715.2199,N,12703.2981,E,1,08,1.4,28.3,M,19.9,M,,*60
$GPRMC,054529.000,A,3715.2199,N,12703.2981,E,0.0,130.1,150911,,,A*69
$GPGLL,3715.2199,N,12703.2981,E,054529.000,A,A*50
$GPGSA,A,3,07,08,11,17,19,22,24,28,,,,,,1.4,*3A
$GPVTG,130.1,T,,M,0.0,N,0.0,K,A*0E
$GPGSV,3,1,10,01,00,000,40,07,38,219,35,08,48,259,35,11,81,054,35*7D
$GPGSV,3,2,10,19,37,058,34,24,79,148,36,28,33,313,35,03,11,081,3*4B
$GPGSV,3,3,10,17,07,268,31,22,06,040,27*70
$GPGGA,054530.000,3715.2199,N,12703.2981,E,1,08,1.4,28.3,M,19.9,M,,*68
$GPRMC,054530.000,A,3715.2199,N,12703.2981,E,0.0,130.1,150911,,,A*61
$GPGLL,3715.2199,N,12703.2981,E,054530.000,A,A*58
$GPGSA,A,3,07,08,11,17,19,22,24,28,,,,,,1.4,*3A
$GPVTG,130.1,T,,M,0.0,N,0.0,K,A*0E
$GPGSV,3,1,10,01,00,000,40,07,38,219,35,08,48,259,35,11,81,054,35*7D
$GPGSV,3,2,10,19,37,058,34,24,79,148,36,28,33,313,35,03,11,081,3*4B
$GPGSV,3,3,10,17,07,268,32,22,06,040,27*73
$GPGGA,054531.000,3715.2199,N,12703.2981,E,1,08,1.4,28.3,M,19.9,M,,*69
$GPRMC,054531.000,A,3715.2199,N,12703.2981,E,0.0,130.1,150911,,,A*60
$GPGLL,3715.2199,N,12703.2981,E,054531.000,A,A*59
$GPGSA,A,3,07,08,11,17,19,22,24,28,,,,,,1.4,*3A
$GPVTG,130.1,T,,M,0.0,N,0.0,K,A*0E
$GPGSV,3,1,10,01,00,000,40,07,38,219,35,08,48,259,35,11,81,054,35*7D
$GPGSV,3,2,10,19,37,058,33,24,79,148,36,28,33,313,35,03,11,081,3*4C
$GPGSV,3,3,10,17,07,268,32,22,06,040,27*73
$GPGGA,054532.000,3715.2199,N,12703.2981,E,1,08,1.4,28.3,M,19.9,M,,*6A
$GPRMC,054532.000,A,3715.2199,N,12703.2981,E,0.0,130.1,150911,,,A*63
$GPGLL,3715.2199,N,12703.2981,E,054532.000,A,A*5A
$GPGSA,A,3,07,08,11,17,19,22,24,28,,,,,,1.4,*3A
$GPVTG,130.1,T,,M,0.0,N,0.0,K,A*0E
$GPGSV,3,1,10,01,00,000,40,07,38,219,34,08,48,259,35,11,81,054,35*7C
$GPGSV,3,2,10,19,37,058,33,24,79,148,36,28,33,313,35,03,11,081,3*4C
$GPGSV,3,3,10,17,07,268,32,22,06,040,27*73
$GPGGA,054533.000,3715.2199,N,12703.2981,E,1,08,1.4,28.3,M,19.9,M,,*6B
$GPRMC,054533.000,A,3715.2199,N,12703.2981,E,0.0,130.1,150911,,,A*62
$GPGLL,3715.2199,N,12703.2981,E,054533.000,A,A*5B
$GPGSA,A,3,07,08,11,17,19,22,24,28,,,,,,1.4,*3A
$GPVTG,130.1,T,,M,0.0,N,0.0,K,A*0E
$GPGSV,3,1,10,01,00,000,40,07,38,219,34,08,48,259,35,11,81,054,35*7C
$GPGSV,3,2,10,19,37,058,33,24,79,148,36,28,33,313,35,03,11,081,3*4C
$GPGSV,3,3,10,17,07,268,32,22,06,040,27*73
$GPGGA,054534.000,3715.2199,N,12703.2981,E,1,09,1.0,28.3,M,19.9,M,,*69
$GPRMC,054534.000,A,3715.2199,N,12703.2981,E,0.0,130.1,150911,,,A*65
$GPGLL,3715.2199,N,12703.2981,E,054534.000,A,A*5C
$GPGSA,A,3,03,07,08,11,17,19,22,24,28,,,,,1.0,*3D
$GPVTG,130.1,T,,M,0.0,N,0.0,K,A*0E
$GPGSV,3,1,10,01,00,000,40,07,38,219,34,08,48,259,35,11,81,054,35*7C
$GPGSV,3,2,10,19,37,058,33,24,79,148,36,28,33,313,35,03,11,081,3*4C
$GPGSV,3,3,10,17,07,268,32,22,06,040,27*73
$GPGGA,054535.000,3715.2199,N,12703.2981,E,1,09,1.0,28.3,M,19.9,M,,*68
$GPRMC,054535.000,A,3715.2199,N,12703.2981,E,0.0,130.1,150911,,,A*64
$GPGLL,3715.2199,N,12703.2981,E,054535.000,A,A*5D
$GPGSA,A,3,03,07,08,11,17,19,22,24,28,,,,,1.0,*3D
$GPVTG,130.1,T,,M,0.0,N,0.0,K,A*0E
$GPGSV,3,1,11,01,00,000,40,07,38,219,34,08,48,259,36,11,81,054,36*7D
$GPGSV,3,2,11,19,37,058,33,24,79,148,36,28,33,313,35,03,11,081,3*4D
$GPGSV,3,3,11,17,07,268,32,22,06,040,27,32,17,141,31*43
$GPGGA,054536.000,3715.2199,N,12703.2981,E,1,09,1.0,28.3,M,19.9,M,,*6B
$GPRMC,054536.000,A,3715.2199,N,12703.2981,E,0.0,130.1,150911,,,A*67
$GPGLL,3715.2199,N,12703.2981,E,054536.000,A,A*5E
$GPGSA,A,3,03,07,08,11,17,19,22,24,28,,,,,1.0,*3D
$GPVTG,130.1,T,,M,0.0,N,0.0,K,A*0E
$GPGSV,3,1,11,01,00,000,40,07,38,219,34,08,48,259,37,11,81,054,36*7C
$GPGSV,3,2,11,19,37,058,33,24,79,148,36,28,33,313,34,03,11,081,3*4C
$GPGSV,3,3,11,17,07,268,32,22,06,040,29,32,17,141,30*4C
$GPGGA,054537.000,3715.2221,N,12703.2946,E,1,08,1.4,37.7,M,19.9,M,,*6E
$GPRMC,054537.000,A,3715.2221,N,12703.2946,E,2.0,321.9,150911,,,A*65
$GPGLL,3715.2221,N,12703.2946,E,054537.000,A,A*54
$GPGSA,A,3,07,08,11,17,19,22,24,28,,,,,,1.4,*3A
$GPVTG,321.9,T,,M,2.0,N,3.7,K,A*02
$GPGSV,3,1,10,01,00,000,40,07,38,219,34,08,48,259,37,11,81,054,37*7C
$GPGSV,3,2,10,19,37,058,32,24,79,148,37,28,33,313,35,17,07,268,3*4B
$GPGSV,3,3,10,22,06,040,33,32,17,141,29*72
$GPGGA,054538.000,3715.2224,N,12703.2943,E,1,09,1.0,38.6,M,19.9,M,,*6A
$GPRMC,054538.000,A,3715.2224,N,12703.2943,E,1.9,327.5,150911,,,A*6A
$GPGLL,3715.2224,N,12703.2943,E,054538.000,A,A*5B
$GPGSA,A,3,03,07,08,11,17,19,22,24,28,,,,,1.0,*3D
$GPVTG,327.5,T,,M,1.9,N,3.6,K,A*03
$GPGSV,3,1,11,01,00,000,40,07,38,219,34,08,48,259,38,11,81,054,37*72
$GPGSV,3,2,11,19,37,058,28,24,79,148,37,28,33,313,35,20,10,166,3*4E
$GPGSV,3,3,11,17,07,268,32,22,06,040,22,32,17,141,29*4F
$GPGGA,054539.000,3715.2227,N,12703.2945,E,1,09,1.0,38.6,M,19.9,M,,*6E
$GPRMC,054539.000,A,3715.2227,N,12703.2945,E,1.6,340.4,150911,,,A*61
$GPGLL,3715.2227,N,12703.2945,E,054539.000,A,A*5F
$GPGSA,A,3,03,07,08,11,17,19,22,24,28,,,,,1.0,*3D
$GPVTG,340.4,T,,M,1.6,N,2.9,K,A*02
$GPGSV,3,1,12,01,00,000,40,07,38,219,29,08,48,259,39,11,81,054,37*7C
$GPGSV,3,2,12,19,37,058,28,24,79,148,38,28,33,313,35,20,10,166,3*42
$GPGSV,3,3,12,17,07,268,32,22,06,040,28,32,17,141,29,03,11,081,*7C
$GPGGA,054540.000,3715.2228,N,12703.2949,E,1,09,1.0,38.0,M,19.9,M,,*65
$GPRMC,054540.000,A,3715.2228,N,12703.2949,E,0.0,340.4,150911,,,A*6B
$GPGLL,3715.2228,N,12703.2949,E,054540.000,A,A*52
$GPGSA,A,3,03,07,08,11,17,19,22,24,28,,,,,1.0,*3D
$GPVTG,340.4,T,,M,0.0,N,0.0,K,A*0E
$GPGSV,3,1,12,01,00,000,41,07,38,219,28,08,48,259,39,11,81,054,37*7C
$GPGSV,3,2,12,19,37,058,35,24,79,148,38,28,33,313,36,20,10,166,2*4C
$GPGSV,3,3,12,17,07,268,32,22,06,040,30,32,17,141,32,03,11,081,*7F
$GPGGA,054541.000,3715.2228,N,12703.2949,E,1,09,1.0,38.0,M,19.9,M,,*64
$GPRMC,054541.000,A,3715.2228,N,12703.2949,E,0.0,340.4,150911,,,A*6A
$GPGLL,3715.2228,N,12703.2949,E,054541.000,A,A*53
$GPGSA,A,3,03,07,08,11,17,19,22,24,28,,,,,1.0,*3D
$GPVTG,340.4,T,,M,0.0,N,0.0,K,A*0E
$GPGSV,3,1,12,01,00,000,41,07,38,219,29,08,48,259,39,11,81,054,36*7C
$GPGSV,3,2,12,19,37,058,35,24,79,148,37,28,33,313,40,20,10,166,2*42
$GPGSV,3,3,12,17,07,268,32,22,06,040,30,32,17,141,36,03,11,081,*7B
$GPGGA,054542.000,3715.2228,N,12703.2949,E,1,09,1.0,38.0,M,19.9,M,,*67
$GPRMC,054542.000,A,3715.2228,N,12703.2949,E,0.0,340.4,150911,,,A*69
$GPGLL,3715.2228,N,12703.2949,E,054542.000,A,A*50
$GPGSA,A,3,03,07,08,11,17,19,22,24,28,,,,,1.0,*3D
$GPVTG,340.4,T,,M,0.0,N,0.0,K,A*0E
$GPGSV,3,1,12,01,00,000,41,07,38,219,30,08,48,259,38,11,81,054,36*75
$GPGSV,3,2,12,19,37,058,34,24,79,148,37,28,33,313,43,20,10,166,2*40
$GPGSV,3,3,12,17,07,268,32,22,06,040,30,32,17,141,24,03,11,081,*78
$GPGGA,054543.000,3715.2236,N,12703.2958,E,1,09,1.0,36.7,M,19.9,M,,*60
$GPRMC,054543.000,A,3715.2236,N,12703.2958,E,1.6,11.4,150911,,,A*57
$GPGLL,3715.2236,N,12703.2958,E,054543.000,A,A*5E
$GPGSA,A,3,03,07,08,11,17,19,22,24,28,,,,,1.0,*3D
$GPVTG,11.4,T,,M,1.6,N,2.9,K,A*35
$GPGSV,3,1,12,01,00,000,41,07,38,219,30,08,48,259,32,11,81,054,29*71
$GPGSV,3,2,12,19,37,058,34,24,79,148,37,28,33,313,43,20,10,166,3*41
$GPGSV,3,3,12,17,07,268,32,22,06,040,30,32,17,141,27,03,11,081,*7B
$GPGGA,054544.000,3715.2238,N,12703.2963,E,1,09,1.0,36.3,M,19.9,M,,*65
$GPRMC,054544.000,A,3715.2238,N,12703.2963,E,1.6,24.9,150911,,,A*5D
$GPGLL,3715.2238,N,12703.2963,E,054544.000,A,A*5F
$GPGSA,A,3,03,07,08,11,17,19,22,24,28,,,,,1.0,*3D
$GPVTG,24.9,T,,M,1.6,N,3.0,K,A*36
$GPGSV,3,1,12,01,00,000,41,07,38,219,30,08,48,259,30,11,81,054,28*72
$GPGSV,3,2,12,19,37,058,35,24,79,148,36,28,33,313,42,20,10,166,3*40
$GPGSV,3,3,12,17,07,268,33,22,06,040,30,32,17,141,29,03,11,081,*74
$GPGGA,054545.000,3715.2242,N,12703.2968,E,1,09,1.0,36.0,M,19.9,M,,*61
$GPRMC,054545.000,A,3715.2242,N,12703.2968,E,2.0,32.7,150911,,,A*56
$GPGLL,3715.2242,N,12703.2968,E,054545.000,A,A*58
$GPGSA,A,3,03,07,08,11,17,19,22,24,28,,,,,1.0,*3D
$GPVTG,32.7,T,,M,2.0,N,3.6,K,A*3C
$GPGSV,3,1,12,01,00,000,41,07,38,219,34,08,48,259,35,11,81,054,29*72
$GPGSV,3,2,12,19,37,058,36,24,79,148,37,28,33,313,37,20,10,166,2*41
$GPGSV,3,3,12,17,07,268,33,22,06,040,30,32,17,141,30,03,11,081,*7C
$GPGGA,054546.000,3715.2246,N,12703.2974,E,1,09,1.0,35.7,M,19.9,M,,*6F
$GPRMC,054546.000,A,3715.2246,N,12703.2974,E,2.4,34.0,150911,,,A*59
$GPGLL,3715.2246,N,12703.2974,E,054546.000,A,A*52
$GPGSA,A,3,03,07,08,11,17,19,22,24,28,,,,,1.0,*3D
$GPVTG,34.0,T,,M,2.4,N,4.4,K,A*3C
$GPGSV,3,1,12,01,00,000,40,07,38,219,38,08,48,259,35,11,81,054,30*77
$GPGSV,3,2,12,19,37,058,36,24,79,148,41,28,33,313,32,20,10,166,2*45
$GPGSV,3,3,12,17,07,268,33,22,06,040,35,32,17,141,34,03,11,081,*7D
$GPGGA,054547.000,3715.2252,N,12703.2981,E,1,09,1.0,35.1,M,19.9,M,,*67
$GPRMC,054547.000,A,3715.2252,N,12703.2981,E,3.1,37.7,150911,,,A*57
$GPGLL,3715.2252,N,12703.2981,E,054547.000,A,A*5C
$GPGSA,A,3,03,07,08,11,17,19,22,24,28,,,,,1.0,*3D
$GPVTG,37.7,T,,M,3.1,N,5.7,K,A*3E
$GPGSV,3,1,12,01,00,000,40,07,38,219,38,08,48,259,25,11,81,054,29*7E
$GPGSV,3,2,12,19,37,058,36,24,79,148,40,28,33,313,31,20,10,166,2*47
$GPGSV,3,3,12,17,07,268,33,22,06,040,37,32,17,141,32,03,11,081,*79
$GPGGA,054548.000,3715.2260,N,12703.2991,E,1,09,1.0,34.6,M,19.9,M,,*6E
$GPRMC,054548.000,A,3715.2260,N,12703.2991,E,4.3,37.1,150911,,,A*5B
$GPGLL,3715.2260,N,12703.2991,E,054548.000,A,A*53
$GPGSA,A,3,03,07,08,11,17,19,22,24,28,,,,,1.0,*3D
$GPVTG,37.1,T,,M,4.3,N,8.0,K,A*37
$GPGSV,3,1,12,01,00,000,40,07,38,219,37,08,48,259,26,11,81,054,21*7A
$GPGSV,3,2,12,19,37,058,37,24,79,148,39,28,33,313,32,20,10,166,2*4B
$GPGSV,3,3,12,17,07,268,33,22,06,040,37,32,17,141,32,03,11,081,*79
$GPGGA,054549.000,3715.2271,N,12703.3002,E,1,09,1.0,34.1,M,19.9,M,,*6A
$GPRMC,054549.000,A,3715.2271,N,12703.3002,E,5.2,37.0,150911,,,A*59
$GPGLL,3715.2271,N,12703.3002,E,054549.000,A,A*50
$GPGSA,A,3,03,07,08,11,17,19,22,24,28,,,,,1.0,*3D
$GPVTG,37.0,T,,M,5.2,N,9.6,K,A*31
$GPGSV,3,1,12,01,00,000,40,07,38,219,36,08,48,259,27,11,81,054,21*7A
$GPGSV,3,2,12,19,37,058,37,24,79,148,39,28,33,313,33,20,10,166,2*4A
$GPGSV,3,3,12,17,07,268,33,22,06,040,37,32,17,141,32,03,11,081,*79
$GPGGA,054550.000,3715.2283,N,12703.3014,E,1,09,1.0,33.9,M,19.9,M,,*67
$GPRMC,054550.000,A,3715.2283,N,12703.3014,E,5.4,35.1,150911,,,A*5E
$GPGLL,3715.2283,N,12703.3014,E,054550.000,A,A*52
$GPGSA,A,3,03,07,08,11,17,19,22,24,28,,,,,1.0,*3D
$GPVTG,35.1,T,,M,5.4,N,10.1,K,A*0B
$GPGSV,3,1,12,01,00,000,40,07,38,219,32,08,48,259,27,11,81,054,22*7D
$GPGSV,3,2,12,19,37,058,38,24,79,148,39,28,33,313,33,20,10,166,2*45
$GPGSV,3,3,12,17,07,268,33,22,06,040,37,32,17,141,32,03,11,081,*79
$GPGGA,054551.000,3715.2296,N,12703.3028,E,1,09,1.0,33.9,M,19.9,M,,*6D
$GPRMC,054551.000,A,3715.2296,N,12703.3028,E,5.8,35.3,150911,,,A*5A
$GPGLL,3715.2296,N,12703.3028,E,054551.000,A,A*58
$GPGSA,A,3,03,07,08,11,17,19,22,24,28,,,,,1.0,*3D
$GPVTG,35.3,T,,M,5.8,N,10.7,K,A*03
$GPGSV,3,1,12,01,00,000,40,07,38,219,33,08,48,259,27,11,81,054,23*7D
$GPGSV,3,2,12,19,37,058,38,24,79,148,39,28,33,313,34,20,10,166,2*42
$GPGSV,3,3,12,17,07,268,33,22,06,040,37,32,17,141,32,03,11,081,*79
$GPGGA,054552.000,3715.2310,N,12703.3041,E,1,09,1.0,34.0,M,19.9,M,,*60
$GPRMC,054552.000,A,3715.2310,N,12703.3041,E,5.7,34.9,150911,,,A*5D
$GPGLL,3715.2310,N,12703.3041,E,054552.000,A,A*5B
$GPGSA,A,3,03,07,08,11,17,19,22,24,28,,,,,1.0,*3D
$GPVTG,34.9,T,,M,5.7,N,10.5,K,A*05
$GPGSV,3,1,12,01,00,000,40,07,38,219,33,08,48,259,27,11,81,054,23*7D
$GPGSV,3,2,12,19,37,058,39,24,79,148,40,28,33,313,34,20,10,166,2*4D
$GPGSV,3,3,12,17,07,268,33,22,06,040,37,32,17,141,32,03,11,081,*79
$GPGGA,054553.000,3715.2322,N,12703.3052,E,1,09,1.0,33.8,M,19.9,M,,*6D
$GPRMC,054553.000,A,3715.2322,N,12703.3052,E,5.0,30.9,150911,,,A*5C
$GPGLL,3715.2322,N,12703.3052,E,054553.000,A,A*59
$GPGSA,A,3,03,07,08,11,17,19,22,24,28,,,,,1.0,*3D
$GPVTG,30.9,T,,M,5.0,N,9.2,K,A*39
$GPGSV,3,1,12,01,00,000,39,07,38,219,33,08,48,259,28,11,81,054,24*7B
$GPGSV,3,2,12,19,37,058,39,24,79,148,40,28,33,313,34,20,10,166,3*4C
$GPGSV,3,3,12,17,07,268,33,22,06,040,37,32,17,141,32,03,11,081,*79
$GPGGA,054554.000,3715.2333,N,12703.3058,E,1,09,1.0,33.9,M,19.9,M,,*61
$GPRMC,054554.000,A,3715.2333,N,12703.3058,E,3.8,23.1,150911,,,A*55
$GPGLL,3715.2333,N,12703.3058,E,054554.000,A,A*54
$GPGSA,A,3,03,07,08,11,17,19,22,24,28,,,,,1.0,*3D
$GPVTG,23.1,T,,M,3.8,N,6.9,K,A*39
$GPGSV,3,1,12,01,00,000,39,07,38,219,33,08,48,259,30,11,81,054,24*72
$GPGSV,3,2,12,19,37,058,38,24,79,148,40,28,33,313,29,20,10,166,3*41
$GPGSV,3,3,12,17,07,268,33,22,06,040,37,32,17,141,30,03,11,081,*7B
$GPGGA,054555.000,3715.2340,N,12703.3060,E,1,09,1.0,33.8,M,19.8,M,,*6F
$GPRMC,054555.000,A,3715.2340,N,12703.3060,E,2.5,11.6,150911,,,A*51
$GPGLL,3715.2340,N,12703.3060,E,054555.000,A,A*5A
$GPGSA,A,3,03,07,08,11,17,19,22,24,28,,,,,1.0,*3D
$GPVTG,11.6,T,,M,2.5,N,4.7,K,A*3F
$GPGSV,3,1,12,01,00,000,39,07,38,219,33,08,48,259,36,11,81,054,30*71
$GPGSV,3,2,12,19,37,058,38,24,79,148,40,28,33,313,33,20,10,166,2*4B
$GPGSV,3,3,12,17,07,268,33,22,06,040,36,32,17,141,30,03,11,081,*7A
$GPGGA,054556.000,3715.2346,N,12703.3057,E,1,09,1.0,33.7,M,19.9,M,,*60
$GPRMC,054556.000,A,3715.2346,N,12703.3057,E,2.2,354.2,150911,,,A*61
$GPGLL,3715.2346,N,12703.3057,E,054556.000,A,A*5B
$GPGSA,A,3,03,07,08,11,17,19,22,24,28,,,,,1.0,*3D
$GPVTG,354.2,T,,M,2.2,N,4.0,K,A*09
$GPGSV,3,1,12,01,00,000,40,07,38,219,33,08,48,259,35,11,81,054,30*7C
$GPGSV,3,2,12,19,37,058,35,24,79,148,40,28,33,313,38,20,10,166,2*4D
$GPGSV,3,3,12,17,07,268,33,22,06,040,36,32,17,141,29,03,11,081,*72
$GPGGA,054557.000,3715.2347,N,12703.3057,E,1,07,1.2,33.4,M,19.9,M,,*6F
$GPRMC,054557.000,A,3715.2347,N,12703.3057,E,1.2,334.4,150911,,,A*62
$GPGLL,3715.2347,N,12703.3057,E,054557.000,A,A*5B
$GPGSA,A,3,03,07,08,19,22,24,28,,,,,,,1.2,*39
$GPVTG,334.4,T,,M,1.2,N,2.3,K,A*0F
$GPGSV,3,1,10,01,00,000,41,07,38,219,33,08,48,259,36,19,37,058,32*77
$GPGSV,3,2,10,24,79,148,39,28,33,313,41,20,10,166,25,22,06,040,3*4C
$GPGSV,3,3,10,32,17,141,26,03,11,081,30*76
$GPGGA,054558.000,3715.2347,N,12703.3054,E,1,09,1.0,33.3,M,19.9,M,,*68
$GPRMC,054558.000,A,3715.2347,N,12703.3054,E,1.7,319.5,150911,,,A*65
$GPGLL,3715.2347,N,12703.3054,E,054558.000,A,A*57
$GPGSA,A,3,03,07,08,11,17,19,22,24,28,,,,,1.0,*3D
$GPVTG,319.5,T,,M,1.7,N,3.1,K,A*07
$GPGSV,3,1,10,01,00,000,41,07,38,219,33,08,48,259,41,19,37,058,32*77
$GPGSV,3,2,10,24,79,148,39,28,33,313,41,20,10,166,22,22,06,040,3*4B
$GPGSV,3,3,10,32,17,141,28,03,11,081,32*7A
$GPGGA,054559.000,3715.2350,N,12703.3049,E,1,08,1.2,33.6,M,19.9,M,,*65
$GPRMC,054559.000,A,3715.2350,N,12703.3049,E,2.5,308.9,150911,,,A*63
$GPGLL,3715.2350,N,12703.3049,E,054559.000,A,A*5C
$GPGSA,A,3,03,07,08,11,19,22,24,28,,,,,,1.2,*39
$GPVTG,308.9,T,,M,2.5,N,4.6,K,A*0A
$GPGSV,3,1,12,01,00,000,41,07,38,219,30,08,48,259,41,11,81,054,36*7B
$GPGSV,3,2,12,19,37,058,32,24,79,148,39,28,33,313,39,20,10,166,2*45
$GPGSV,3,3,12,17,07,268,31,22,06,040,30,32,17,141,27,03,11,081,*78
$GPGGA,054600.000,3715.2354,N,12703.3038,E,1,09,1.0,33.8,M,19.9,M,,*65
$GPRMC,054600.000,A,3715.2354,N,12703.3038,E,4.1,300.5,150911,,,A*68
$GPGLL,3715.2354,N,12703.3038,E,054600.000,A,A*51
$GPGSA,A,3,03,07,08,11,17,19,22,24,28,,,,,1.0,*3D
$GPVTG,300.5,T,,M,4.1,N,7.5,K,A*0C
$GPGSV,3,1,12,01,00,000,41,07,38,219,33,08,48,259,41,11,81,054,37*79
$GPGSV,3,2,12,19,37,058,27,24,79,148,39,28,33,313,37,20,10,166,3*4E
$GPGSV,3,3,12,17,07,268,32,22,06,040,26,32,17,141,28,03,11,081,*73
$GPGGA,054601.000,3715.2362,N,12703.3024,E,1,09,1.0,34.0,M,19.9,M,,*63
$GPRMC,054601.000,A,3715.2362,N,12703.3024,E,5.2,301.0,150911,,,A*67
$GPGLL,3715.2362,N,12703.3024,E,054601.000,A,A*58
$GPGSA,A,3,03,07,08,11,17,19,22,24,28,,,,,1.0,*3D
$GPVTG,301.0,T,,M,5.2,N,9.7,K,A*06
$GPGSV,3,1,12,01,00,000,40,07,38,219,34,08,48,259,41,11,81,054,38*70
$GPGSV,3,2,12,19,37,058,26,24,79,148,39,28,33,313,37,20,10,166,3*4F
$GPGSV,3,3,12,17,07,268,33,22,06,040,28,32,17,141,28,03,11,081,*7C
$GPGGA,054602.000,3715.2371,N,12703.3007,E,1,09,1.0,34.3,M,19.9,M,,*60
$GPRMC,054602.000,A,3715.2371,N,12703.3007,E,6.0,301.8,150911,,,A*6E
$GPGLL,3715.2371,N,12703.3007,E,054602.000,A,A*58
$GPGSA,A,3,03,07,08,11,17,19,22,24,28,,,,,1.0,*3D
$GPVTG,301.8,T,,M,6.0,N,11.1,K,A*30
$GPGSV,3,1,12,01,00,000,40,07,38,219,34,08,48,259,40,11,81,054,38*71
$GPGSV,3,2,12,19,37,058,27,24,79,148,39,28,33,313,37,20,10,166,3*4E
$GPGSV,3,3,12,17,07,268,33,22,06,040,33,32,17,141,29,03,11,081,*77
$GPGGA,054603.000,3715.2381,N,12703.2988,E,1,09,1.0,34.3,M,19.9,M,,*61
$GPRMC,054603.000,A,3715.2381,N,12703.2988,E,6.2,301.6,150911,,,A*63
$GPGLL,3715.2381,N,12703.2988,E,054603.000,A,A*59
$GPGSA,A,3,03,07,08,11,17,19,22,24,28,,,,,1.0,*3D
$GPVTG,301.6,T,,M,6.2,N,11.6,K,A*3B
$GPGSV,3,1,12,01,00,000,40,07,38,219,34,08,48,259,40,11,81,054,38*71
$GPGSV,3,2,12,19,37,058,28,24,79,148,39,28,33,313,37,20,10,166,3*41
$GPGSV,3,3,12,17,07,268,33,22,06,040,38,32,17,141,28,03,11,081,*7D
$GPGGA,054604.000,3715.2390,N,12703.2970,E,1,09,1.0,34.3,M,19.9,M,,*61
$GPRMC,054604.000,A,3715.2390,N,12703.2970,E,5.9,301.3,150911,,,A*6E
$GPGLL,3715.2390,N,12703.2970,E,054604.000,A,A*59
$GPGSA,A,3,03,07,08,11,17,19,22,24,28,,,,,1.0,*3D
$GPVTG,301.3,T,,M,5.9,N,10.9,K,A*38
$GPGSV,3,1,12,01,00,000,40,07,38,219,34,08,48,259,40,11,81,054,38*71
$GPGSV,3,2,12,19,37,058,28,24,79,148,39,28,33,313,36,20,10,166,3*40
$GPGSV,3,3,12,17,07,268,33,22,06,040,37,32,17,141,29,03,11,081,*73
$GPGGA,054605.000,3715.2397,N,12703.2954,E,1,09,1.0,34.2,M,19.9,M,,*60
$GPRMC,054605.000,A,3715.2397,N,12703.2954,E,4.1,300.2,150911,,,A*67
$GPGLL,3715.2397,N,12703.2954,E,054605.000,A,A*59
$GPGSA,A,3,03,07,08,11,17,19,22,24,28,,,,,1.0,*3D
$GPVTG,300.2,T,,M,4.1,N,7.6,K,A*08
$GPGSV,3,1,12,01,00,000,40,07,38,219,34,08,48,259,40,11,81,054,39*70
$GPGSV,3,2,12,19,37,058,29,24,79,148,39,28,33,313,36,20,10,166,3*41
$GPGSV,3,3,12,17,07,268,33,22,06,040,34,32,17,141,29,03,11,081,*70
$GPGGA,054606.000,3715.2402,N,12703.2942,E,1,09,1.0,34.2,M,19.9,M,,*6F
$GPRMC,054606.000,A,3715.2402,N,12703.2942,E,3.7,298.1,150911,,,A*6A
$GPGLL,3715.2402,N,12703.2942,E,054606.000,A,A*56
$GPGSA,A,3,03,07,08,11,17,19,22,24,28,,,,,1.0,*3D
$GPVTG,298.1,T,,M,3.7,N,6.8,K,A*05
$GPGSV,1,6,,,,,,,,,,,,,0.0*50
$GPGGA,054607.000,3715.2406,N,12703.2933,E,1,09,1.0,34.1,M,19.8,M,,*6E
$GPRMC,054607.000,A,3715.2406,N,12703.2933,E,2.7,300.1,150911,,,A*68
$GPGLL,3715.2406,N,12703.2933,E,054607.000,A,A*55
$GPGSA,A,3,03,07,08,11,17,19,22,24,28,,,,,1.0,*3D
$GPVTG,300.1,T,,M,2.7,N,4.9,K,A*07
$GPGSV,3,1,12,01,00,000,40,07,38,219,33,08,48,259,40,11,81,054,38*76
$GPGSV,3,2,12,19,37,058,34,24,79,148,38,28,33,313,35,20,10,166,3*4F
$GPGSV,3,3,12,17,07,268,37,22,06,040,34,32,17,141,28,03,11,081,*75
$GPGGA,054608.000,3715.2409,N,12703.2929,E,1,09,1.0,34.0,M,19.9,M,,*65
$GPRMC,054608.000,A,3715.2409,N,12703.2929,E,2.1,304.4,150911,,,A*64
$GPGLL,3715.2409,N,12703.2929,E,054608.000,A,A*5E
$GPGSA,A,3,03,07,08,11,17,19,22,24,28,,,,,1.0,*3D
$GPVTG,304.4,T,,M,2.1,N,3.9,K,A*07
$GPGSV,3,1,12,01,00,000,40,07,38,219,34,08,48,259,41,11,81,054,39*71
$GPGSV,3,2,12,19,37,058,33,24,79,148,38,28,33,313,37,20,10,166,3*4A
$GPGSV,3,3,12,17,07,268,36,22,06,040,34,32,17,141,30,03,11,081,*7D
$GPGGA,054609.000,3715.2415,N,12703.2925,E,1,09,1.0,33.8,M,19.9,M,,*6A
$GPRMC,054609.000,A,3715.2415,N,12703.2925,E,2.3,322.3,150911,,,A*65
$GPGLL,3715.2415,N,12703.2925,E,054609.000,A,A*5E
$GPGSA,A,3,03,07,08,11,17,19,22,24,28,,,,,1.0,*3D
$GPVTG,322.3,T,,M,2.3,N,4.2,K,A*0A
$GPGSV,3,1,12,01,00,000,40,07,38,219,34,08,48,259,41,11,81,054,39*71
$GPGSV,3,2,12,19,37,058,31,24,79,148,39,28,33,313,38,20,10,166,3*46
$GPGSV,3,3,12,17,07,268,37,22,06,040,23,32,17,141,30,03,11,081,*7A
$GPGGA,054610.000,3715.2426,N,12703.2924,E,1,09,1.0,34.5,M,19.9,M,,*69
$GPRMC,054610.000,A,3715.2426,N,12703.2924,E,3.0,352.3,150911,,,A*69
$GPGLL,3715.2426,N,12703.2924,E,054610.000,A,A*57
$GPGSA,A,3,03,07,08,11,17,19,22,24,28,,,,,1.0,*3D
$GPVTG,352.3,T,,M,3.0,N,5.6,K,A*0A
$GPGSV,3,1,12,01,00,000,41,07,38,219,34,08,48,259,41,11,81,054,39*70
$GPGSV,3,2,12,19,37,058,32,24,79,148,39,28,33,313,38,20,10,166,3*45
$GPGSV,3,3,12,17,07,268,37,22,06,040,31,32,17,141,30,03,11,081,*79
$GPGGA,054611.000,3715.2436,N,12703.2926,E,1,09,1.0,34.5,M,19.9,M,,*6B
$GPRMC,054611.000,A,3715.2436,N,12703.2926,E,3.3,5.0,150911,,,A*6A
$GPGLL,3715.2436,N,12703.2926,E,054611.000,A,A*55
$GPGSA,A,3,03,07,08,11,17,19,22,24,28,,,,,1.0,*3D
$GPVTG,5.0,T,,M,3.3,N,6.2,K,A*0C
$GPGSV,3,1,12,01,00,000,41,07,38,219,33,08,48,259,41,11,81,054,34*7A
$GPGSV,3,2,12,19,37,058,32,24,79,148,39,28,33,313,39,20,10,166,3*44
$GPGSV,3,3,12,17,07,268,31,22,06,040,31,32,17,141,30,03,11,081,*7F
$GPGGA,054612.000,3715.2448,N,12703.2934,E,1,09,1.0,34.5,M,19.9,M,,*62
$GPRMC,054612.000,A,3715.2448,N,12703.2934,E,4.5,24.5,150911,,,A*54
$GPGLL,3715.2448,N,12703.2934,E,054612.000,A,A*5C
$GPGSA,A,3,03,07,08,11,17,19,22,24,28,,,,,1.0,*3D
$GPVTG,24.5,T,,M,4.5,N,8.3,K,A*34
$GPGSV,3,1,11,07,38,219,33,08,48,259,40,11,81,054,30,19,37,058,33*79
$GPGSV,3,2,11,24,79,148,39,28,33,313,39,20,10,166,33,17,07,268,3*4A
$GPGSV,3,3,11,22,06,040,31,32,17,141,30,03,11,081,34*44
$GPGGA,054613.000,3715.2461,N,12703.2945,E,1,09,1.0,34.2,M,19.9,M,,*69
$GPRMC,054613.000,A,3715.2461,N,12703.2945,E,5.8,29.5,150911,,,A*59
$GPGLL,3715.2461,N,12703.2945,E,054613.000,A,A*50
$GPGSA,A,3,03,07,08,11,17,19,22,24,28,,,,,1.0,*3D
$GPVTG,29.5,T,,M,5.8,N,10.7,K,A*08
$GPGSV,3,1,12,16,00,127,22,07,38,219,33,08,48,259,28,11,81,054,31*77
$GPGSV,3,2,12,19,37,058,33,24,79,148,39,28,33,313,30,20,10,166,3*4C
$GPGSV,3,3,12,17,07,268,33,22,06,040,35,32,17,141,30,03,11,081,*79
$GPGGA,054614.000,3715.2479,N,12703.2960,E,1,09,1.0,33.7,M,19.9,M,,*62
$GPRMC,054614.000,A,3715.2479,N,12703.2960,E,7.5,33.0,150911,,,A*51
$GPGLL,3715.2479,N,12703.2960,E,054614.000,A,A*59
$GPGSA,A,3,03,07,08,11,17,19,22,24,28,,,,,1.0,*3D
$GPVTG,33.0,T,,M,7.5,N,13.8,K,A*05
$GPGSV,3,1,12,16,00,127,21,07,38,219,33,08,48,259,27,11,81,054,30*7A
$GPGSV,3,2,12,19,37,058,33,24,79,148,39,28,33,313,31,20,10,166,3*4D
$GPGSV,3,3,12,17,07,268,33,22,06,040,38,32,17,141,30,03,11,081,*74
$GPGGA,054615.000,3715.2503,N,12703.2978,E,1,09,1.0,33.2,M,19.9,M,,*63
$GPRMC,054615.000,A,3715.2503,N,12703.2978,E,9.5,32.9,150911,,,A*53
$GPGLL,3715.2503,N,12703.2978,E,054615.000,A,A*5D
$GPGSA,A,3,03,07,08,11,17,19,22,24,28,,,,,1.0,*3D
$GPVTG,32.9,T,,M,9.5,N,17.6,K,A*09
$GPGSV,3,1,12,16,00,127,22,07,38,219,33,08,48,259,27,11,81,054,30*79
$GPGSV,3,2,12,19,37,058,33,24,79,148,40,28,33,313,31,20,10,166,3*43
$GPGSV,3,3,12,17,07,268,33,22,06,040,38,32,17,141,30,03,11,081,*74
$GPGGA,054616.000,3715.2530,N,12703.2998,E,1,09,1.0,32.9,M,19.9,M,,*64
$GPRMC,054616.000,A,3715.2530,N,12703.2998,E,10.6,32.3,150911,,,A*6F
$GPGLL,3715.2530,N,12703.2998,E,054616.000,A,A*50
$GPGSA,A,3,03,07,08,11,17,19,22,24,28,,,,,1.0,*3D
$GPVTG,32.3,T,,M,10.6,N,19.7,K,A*37
$GPGSV,3,1,12,16,00,127,21,07,38,219,33,08,48,258,28,11,81,052,30*72
$GPGSV,3,2,12,19,37,058,33,24,79,147,41,28,33,313,31,20,10,166,3*4D
$GPGSV,3,3,12,17,07,268,33,22,06,040,37,32,17,141,30,03,11,081,*7B
$GPGGA,054617.000,3715.2557,N,12703.3018,E,1,09,1.0,32.6,M,19.9,M,,*6B
$GPRMC,054617.000,A,3715.2557,N,12703.3018,E,10.7,31.9,150911,,,A*67
$GPGLL,3715.2557,N,12703.3018,E,054617.000,A,A*50
$GPGSA,A,3,03,07,08,11,17,19,22,24,28,,,,,1.0,*3D
$GPVTG,31.9,T,,M,10.7,N,19.9,K,A*31
$GPGSV,3,1,12,16,00,127,21,07,38,219,33,08,48,258,28,11,81,052,30*72
$GPGSV,3,2,12,19,37,058,33,24,79,147,41,28,33,313,32,20,10,166,3*4E
$GPGSV,3,3,12,17,07,268,33,22,06,040,37,32,17,141,31,03,11,081,*7A
$GPGGA,054618.000,3715.2584,N,12703.3038,E,1,09,1.0,32.4,M,19.9,M,,*6A
$GPRMC,054618.000,A,3715.2584,N,12703.3038,E,10.8,30.7,150911,,,A*64
$GPGLL,3715.2584,N,12703.3038,E,054618.000,A,A*53
$GPGSA,A,3,03,07,08,11,17,19,22,24,28,,,,,1.0,*3D
$GPVTG,30.7,T,,M,10.8,N,20.1,K,A*33
$GPGSV,3,1,12,16,00,127,21,07,38,219,33,08,48,258,28,11,81,052,30*72
$GPGSV,3,2,12,19,37,058,33,24,79,147,41,28,33,313,32,20,10,166,3*4E
$GPGSV,3,3,12,17,07,268,33,22,06,040,37,32,17,141,31,03,11,081,*7A
$GPGGA,054619.000,3715.2611,N,12703.3058,E,1,09,1.0,32.2,M,19.9,M,,*64
$GPRMC,054619.000,A,3715.2611,N,12703.3058,E,10.8,32.2,150911,,,A*6B
$GPGLL,3715.2611,N,12703.3058,E,054619.000,A,A*5B
$GPGSA,A,3,03,07,08,11,17,19,22,24,28,,,,,1.0,*3D
$GPVTG,32.2,T,,M,10.8,N,20.1,K,A*34
$GPGSV,3,1,12,16,00,127,21,07,38,219,33,08,48,258,28,11,81,052,30*72
$GPGSV,3,2,12,19,37,058,33,24,79,147,41,28,33,313,32,20,10,166,3*4E
$GPGSV,3,3,12,17,07,268,33,22,06,040,37,32,17,141,31,03,11,081,*7A
$GPGGA,054620.000,3715.2637,N,12703.3078,E,1,09,1.0,32.1,M,19.9,M,,*6B
$GPRMC,054620.000,A,3715.2637,N,12703.3078,E,10.7,32.4,150911,,,A*6E
$GPGLL,3715.2637,N,12703.3078,E,054620.000,A,A*57
$GPGSA,A,3,03,07,08,11,17,19,22,24,28,,,,,1.0,*3D
$GPVTG,32.4,T,,M,10.7,N,19.8,K,A*3E
$GPGSV,3,1,12,16,00,127,17,07,38,219,33,08,48,258,28,11,81,052,30*77
$GPGSV,3,2,12,19,37,058,34,24,79,147,42,28,33,313,31,20,10,166,3*49
$GPGSV,3,3,12,17,07,268,33,22,06,040,37,32,17,141,31,03,11,081,*7A
$GPGGA,054621.000,3715.2663,N,12703.3099,E,1,09,1.0,32.0,M,19.9,M,,*65
$GPRMC,054621.000,A,3715.2663,N,12703.3099,E,10.8,33.4,150911,,,A*6F
$GPGLL,3715.2663,N,12703.3099,E,054621.000,A,A*58
$GPGSA,A,3,03,07,08,11,17,19,22,24,28,,,,,1.0,*3D
$GPVTG,33.4,T,,M,10.8,N,20.1,K,A*33
$GPGSV,3,1,12,16,00,127,17,07,38,219,33,08,48,258,29,11,81,052,30*76
$GPGSV,3,2,12,19,37,058,34,24,79,147,42,28,33,313,32,20,10,166,3*4A
$GPGSV,3,3,12,17,07,268,33,22,06,040,37,32,17,141,31,03,11,081,*7A
$GPGGA,054622.000,3715.2688,N,12703.3120,E,1,09,1.0,31.9,M,19.9,M,,*6A
$GPRMC,054622.000,A,3715.2688,N,12703.3120,E,11.0,35.8,150911,,,A*69
$GPGLL,3715.2688,N,12703.3120,E,054622.000,A,A*5D
$GPGSA,A,3,03,07,08,11,17,19,22,24,28,,,,,1.0,*3D
$GPVTG,35.8,T,,M,11.0,N,20.3,K,A*32
$GPGSV,3,1,12,16,00,127,16,07,38,219,33,08,48,258,29,11,81,052,30*77
$GPGSV,3,2,12,19,37,058,38,24,79,147,42,28,33,313,32,20,10,166,3*46
$GPGSV,3,3,12,17,07,268,33,22,06,040,37,32,17,141,31,03,11,081,*7A
$GPGGA,054623.000,3715.2713,N,12703.3145,E,1,09,1.0,31.9,M,19.9,M,,*6B
$GPRMC,054623.000,A,3715.2713,N,12703.3145,E,11.4,41.1,150911,,,A*66
$GPGLL,3715.2713,N,12703.3145,E,054623.000,A,A*5C
$GPGSA,A,3,03,07,08,11,17,19,22,24,28,,,,,1.0,*3D
$GPVTG,41.1,T,,M,11.4,N,21.1,K,A*3F
$GPGSV,3,1,12,01,00,000,39,07,38,219,34,08,48,258,29,11,81,052,30*7F
$GPGSV,3,2,12,19,37,058,40,24,79,147,41,28,33,313,32,20,10,166,2*4B
$GPGSV,3,3,12,17,07,268,33,22,06,040,37,32,17,141,31,03,11,081,*7A
$GPGGA,054624.000,3715.2739,N,12703.3171,E,1,09,1.0,31.9,M,19.9,M,,*63
$GPRMC,054624.000,A,3715.2739,N,12703.3171,E,11.7,40.4,150911,,,A*69
$GPGLL,3715.2739,N,12703.3171,E,054624.000,A,A*54
$GPGSA,A,3,03,07,08,11,17,19,22,24,28,,,,,1.0,*3D
$GPVTG,40.4,T,,M,11.7,N,21.6,K,A*3F
$GPGSV,3,1,12,01,00,000,40,07,38,219,34,08,48,258,29,11,81,052,26*76
$GPGSV,3,2,12,19,37,058,40,24,79,147,41,28,33,313,33,20,10,166,3*4B
$GPGSV,3,3,12,17,07,268,33,22,06,040,37,32,17,141,31,03,11,081,*7A
$GPGGA,054625.000,3715.2764,N,12703.3196,E,1,09,1.0,32.1,M,19.9,M,,*68
$GPRMC,054625.000,A,3715.2764,N,12703.3196,E,10.9,36.9,150911,,,A*6A
$GPGLL,3715.2764,N,12703.3196,E,054625.000,A,A*54
$GPGSA,A,3,03,07,08,11,17,19,22,24,28,,,,,1.0,*3D
$GPVTG,36.9,T,,M,10.9,N,20.2,K,A*39
$GPGSV,3,1,12,01,00,000,39,07,38,219,34,08,48,258,30,11,81,052,29*7F
$GPGSV,3,2,12,19,37,058,39,24,79,147,38,28,33,313,36,20,10,166,3*4E
$GPGSV,3,3,12,17,07,268,33,22,06,040,37,32,17,141,31,03,11,081,*7A
$GPGGA,054626.000,3715.2787,N,12703.3215,E,1,09,1.0,32.5,M,19.9,M,,*6A
$GPRMC,054626.000,A,3715.2787,N,12703.3215,E,9.2,31.5,150911,,,A*54
$GPGLL,3715.2787,N,12703.3215,E,054626.000,A,A*52
$GPGSA,A,3,03,07,08,11,17,19,22,24,28,,,,,1.0,*3D
$GPVTG,31.5,T,,M,9.2,N,17.1,K,A*06
$GPGSV,3,1,12,01,00,000,39,07,38,219,34,08,48,258,36,11,81,052,31*70
$GPGSV,3,2,12,19,37,058,38,24,79,147,36,28,33,313,32,20,10,166,3*45
$GPGSV,3,3,12,17,07,268,34,22,06,040,31,32,17,141,31,03,11,081,*7B
$GPGGA,054627.000,3715.2808,N,12703.3230,E,1,09,1.0,32.7,M,19.9,M,,*66
$GPRMC,054627.000,A,3715.2808,N,12703.3230,E,8.3,29.7,150911,,,A*51
$GPGLL,3715.2808,N,12703.3230,E,054627.000,A,A*5C
$GPGSA,A,3,03,07,08,11,17,19,22,24,28,,,,,1.0,*3D
$GPVTG,29.7,T,,M,8.3,N,15.3,K,A*0D
$GPGSV,3,1,12,01,00,000,39,07,38,219,34,08,48,258,36,11,81,052,32*73
$GPGSV,3,2,12,19,37,058,31,24,79,147,37,28,33,313,26,20,10,166,3*48
$GPGSV,3,3,12,17,07,268,34,22,06,040,33,32,17,141,31,03,11,081,*79
$GPGGA,054628.000,3715.2828,N,12703.3245,E,1,09,1.0,32.9,M,19.8,M,,*66
$GPRMC,054628.000,A,3715.2828,N,12703.3245,E,8.5,31.3,150911,,,A*55
$GPGLL,3715.2828,N,12703.3245,E,054628.000,A,A*53
$GPGSA,A,3,03,07,08,11,17,19,22,24,28,,,,,1.0,*3D
$GPVTG,31.3,T,,M,8.5,N,15.7,K,A*02
$GPGSV,3,1,12,01,00,000,39,07,38,219,35,08,48,258,30,11,81,052,32*74
$GPGSV,3,2,12,19,37,058,31,24,79,147,38,28,33,313,26,20,10,166,3*47
$GPGSV,3,3,12,17,07,268,34,22,06,040,34,32,17,141,31,03,11,081,*7E
$GPGGA,054629.000,3715.2849,N,12703.3262,E,1,09,1.0,33.0,M,19.9,M,,*6C
$GPRMC,054629.000,A,3715.2849,N,12703.3262,E,9.4,32.3,150911,,,A*55
$GPGLL,3715.2849,N,12703.3262,E,054629.000,A,A*50
$GPGSA,A,3,03,07,08,11,17,19,22,24,28,,,,,1.0,*3D
$GPVTG,32.3,T,,M,9.4,N,17.4,K,A*00
$GPGSV,3,1,12,01,00,000,39,07,38,219,35,08,48,258,29,11,81,052,31*7F
$GPGSV,3,2,12,19,37,058,32,24,79,147,39,28,33,313,27,20,10,166,3*44
$GPGSV,3,3,12,17,07,268,37,22,06,040,34,32,17,141,31,03,11,081,*7D
$GPGGA,054630.000,3715.2872,N,12703.3279,E,1,09,1.0,32.9,M,19.9,M,,*6E
$GPRMC,054630.000,A,3715.2872,N,12703.3279,E,9.6,31.0,150911,,,A*5D
$GPGLL,3715.2872,N,12703.3279,E,054630.000,A,A*5A
$GPGSA,A,3,03,07,08,11,17,19,22,24,28,,,,,1.0,*3D
$GPVTG,31.0,T,,M,9.6,N,17.9,K,A*0F
$GPGSV,3,1,12,01,00,000,39,07,38,219,35,08,48,258,28,11,81,052,31*7E
$GPGSV,3,2,12,19,37,058,32,24,79,147,39,28,33,313,28,20,10,166,3*4B
$GPGSV,3,3,12,17,07,268,38,22,06,040,34,32,17,141,31,03,11,081,*72
$GPGGA,054631.000,3715.2895,N,12703.3293,E,1,09,1.0,32.9,M,19.9,M,,*62
$GPRMC,054631.000,A,3715.2895,N,12703.3293,E,9.0,25.7,150911,,,A*55
$GPGLL,3715.2895,N,12703.3293,E,054631.000,A,A*56
$GPGSA,A,3,03,07,08,11,17,19,22,24,28,,,,,1.0,*3D
$GPVTG,25.7,T,,M,9.0,N,16.7,K,A*04
$GPGSV,3,1,12,01,00,000,39,07,38,219,35,08,48,258,28,11,81,052,31*7E
$GPGSV,3,2,12,19,37,058,32,24,79,147,39,28,33,313,28,20,10,166,3*4B
$GPGSV,3,3,12,17,07,268,37,22,06,040,35,32,17,141,31,03,11,081,*7C
$GPGGA,054632.000,3715.2918,N,12703.3304,E,1,09,1.0,32.9,M,19.9,M,,*6A
$GPRMC,054632.000,A,3715.2918,N,12703.3304,E,8.2,21.9,150911,,,A*54
$GPGLL,3715.2918,N,12703.3304,E,054632.000,A,A*5E
$GPGSA,A,3,03,07,08,11,17,19,22,24,28,,,,,1.0,*3D
$GPVTG,21.9,T,,M,8.2,N,15.2,K,A*0B
$GPGSV,3,1,12,01,00,000,39,07,38,219,33,08,48,258,33,11,81,052,31*72
$GPGSV,3,2,12,19,37,058,33,24,79,147,39,28,33,313,36,20,10,166,3*45
$GPGSV,3,3,12,17,07,268,25,22,06,040,35,32,17,141,31,03,11,081,*7F
$GPGGA,054633.000,3715.2944,N,12703.3304,E,1,09,1.0,33.1,M,19.9,M,,*6B
$GPRMC,054633.000,A,3715.2944,N,12703.3304,E,8.4,9.5,150911,,,A*6C
$GPGLL,3715.2944,N,12703.3304,E,054633.000,A,A*56
$GPGSA,A,3,03,07,08,11,17,19,22,24,28,,,,,1.0,*3D
$GPVTG,9.5,T,,M,8.4,N,15.6,K,A*3F
$GPGSV,3,1,11,07,38,219,29,08,48,258,35,11,81,052,34,19,37,058,33*73
$GPGSV,3,2,11,24,79,147,39,28,33,313,40,20,10,166,31,17,07,268,2*48
$GPGSV,3,3,11,22,06,040,35,32,17,141,31,03,11,081,33*46
$GPGGA,054634.000,3715.2964,N,12703.3289,E,1,09,1.0,33.2,M,19.9,M,,*69
$GPRMC,054634.000,A,3715.2964,N,12703.3289,E,7.3,334.9,150911,,,A*64
$GPGLL,3715.2964,N,12703.3289,E,054634.000,A,A*57
$GPGSA,A,3,03,07,08,11,17,19,22,24,28,,,,,1.0,*3D
$GPVTG,334.9,T,,M,7.3,N,13.4,K,A*32
$GPGSV,3,1,12,16,00,127,30,07,38,219,29,08,48,258,36,11,81,052,39*7F
$GPGSV,3,2,12,19,37,058,33,24,79,147,39,28,33,313,40,20,10,166,3*44
$GPGSV,3,3,12,17,07,268,35,22,06,040,34,32,17,141,31,03,11,081,*7F
$GPGGA,054635.000,3715.2976,N,12703.3264,E,1,09,1.0,33.0,M,19.9,M,,*6A
$GPRMC,054635.000,A,3715.2976,N,12703.3264,E,7.0,307.8,150911,,,A*67
$GPGLL,3715.2976,N,12703.3264,E,054635.000,A,A*56
$GPGSA,A,3,03,07,08,11,17,19,22,24,28,,,,,1.0,*3D
$GPVTG,307.8,T,,M,7.0,N,12.9,K,A*3C
$GPGSV,3,1,12,16,00,127,28,07,38,219,28,08,48,258,38,11,81,052,39*79
$GPGSV,3,2,12,19,37,058,33,24,79,147,40,28,33,313,40,20,10,166,3*4A
$GPGSV,3,3,12,17,07,268,38,22,06,040,31,32,17,141,30,03,11,081,*76
$GPGGA,054636.000,3715.2986,N,12703.3241,E,1,09,1.0,32.8,M,19.9,M,,*68
$GPRMC,054636.000,A,3715.2986,N,12703.3241,E,7.0,304.1,150911,,,A*66
$GPGLL,3715.2986,N,12703.3241,E,054636.000,A,A*5D
$GPGSA,A,3,03,07,08,11,17,19,22,24,28,,,,,1.0,*3D
$GPVTG,304.1,T,,M,7.0,N,13.0,K,A*3E
$GPGSV,3,1,12,16,00,127,20,07,38,219,28,08,48,258,38,11,81,052,38*70
$GPGSV,3,2,12,19,37,058,33,24,79,147,40,28,33,313,40,20,10,166,3*4A
$GPGSV,3,3,12,17,07,268,36,22,06,040,32,32,17,141,30,03,11,081,*7B
$GPGGA,054637.000,3715.2996,N,12703.3215,E,1,09,1.0,32.6,M,19.9,M,,*67
$GPRMC,054637.000,A,3715.2996,N,12703.3215,E,8.5,303.1,150911,,,A*6A
$GPGLL,3715.2996,N,12703.3215,E,054637.000,A,A*5C
$GPGSA,A,3,03,07,08,11,17,19,22,24,28,,,,,1.0,*3D
$GPVTG,303.1,T,,M,8.5,N,15.7,K,A*32
$GPGSV,3,1,12,16,00,127,17,07,38,219,28,08,48,258,39,11,81,052,38*75
$GPGSV,3,2,12,19,37,058,32,24,79,147,41,28,33,313,39,20,10,166,2*45
$GPGSV,3,3,12,17,07,268,37,22,06,040,32,32,17,141,30,03,11,081,*7A
$GPGGA,054638.000,3715.3008,N,12703.3184,E,1,09,1.0,32.4,M,19.9,M,,*6E
$GPRMC,054638.000,A,3715.3008,N,12703.3184,E,10.2,301.3,150911,,,A*5F
$GPGLL,3715.3008,N,12703.3184,E,054638.000,A,A*57
$GPGSA,A,3,03,07,08,11,17,19,22,24,28,,,,,1.0,*3D
$GPVTG,301.3,T,,M,10.2,N,19.0,K,A*07
$GPGSV,3,1,12,01,00,000,39,07,38,219,29,08,48,258,39,11,81,052,38*7A
$GPGSV,3,2,12,19,37,058,32,24,79,147,41,28,33,313,39,20,10,166,2*45
$GPGSV,3,3,12,17,07,268,37,22,06,040,33,32,17,141,30,03,11,081,*7B
$GPGGA,054639.000,3715.3020,N,12703.3148,E,1,09,1.0,32.2,M,19.8,M,,*62
$GPRMC,054639.000,A,3715.3020,N,12703.3148,E,11.2,296.8,150911,,,A*51
$GPGLL,3715.3020,N,12703.3148,E,054639.000,A,A*5C
$GPGSA,A,3,03,07,08,11,17,19,22,24,28,,,,,1.0,*3D
$GPVTG,296.8,T,,M,11.2,N,20.8,K,A*00
$GPGSV,3,1,12,01,00,000,39,07,38,219,35,08,48,258,39,11,81,052,38*77
$GPGSV,3,2,12,19,37,058,32,24,79,147,41,28,33,313,39,20,10,166,3*44
$GPGSV,3,3,12,17,07,268,37,22,06,040,37,32,17,141,30,03,11,081,*7F
$GPGGA,054640.000,3715.3032,N,12703.3109,E,1,09,1.0,31.9,M,19.9,M,,*63
$GPRMC,054640.000,A,3715.3032,N,12703.3109,E,11.9,291.3,150911,,,A*5E
$GPGLL,3715.3032,N,12703.3109,E,054640.000,A,A*54
$GPGSA,A,3,03,07,08,11,17,19,22,24,28,,,,,1.0,*3D
$GPVTG,291.3,T,,M,11.9,N,22.1,K,A*0C
$GPGSV,3,1,12,01,00,000,39,07,38,219,37,08,48,258,40,11,81,052,38*7B
$GPGSV,3,2,12,19,37,058,33,24,79,147,41,28,33,313,39,20,10,166,3*45
$GPGSV,3,3,12,17,07,268,37,22,06,040,36,32,17,141,30,03,11,081,*7E
$GPGGA,054641.000,3715.3042,N,12703.3066,E,1,09,1.0,31.7,M,19.9,M,,*63
$GPRMC,054641.000,A,3715.3042,N,12703.3066,E,12.1,288.1,150911,,,A*51
$GPGLL,3715.3042,N,12703.3066,E,054641.000,A,A*5A
$GPGSA,A,3,03,07,08,11,17,19,22,24,28,,,,,1.0,*3D
$GPVTG,288.1,T,,M,12.1,N,22.4,K,A*08
$GPGSV,3,1,12,01,00,000,39,07,38,219,36,08,48,258,40,11,81,052,38*7A
$GPGSV,3,2,12,19,37,058,37,24,79,147,41,28,33,313,39,20,10,166,3*41
$GPGSV,3,3,12,17,07,268,37,22,06,040,36,32,17,141,30,03,11,081,*7E
$GPGGA,054642.000,3715.3052,N,12703.3024,E,1,09,1.0,31.6,M,19.9,M,,*66
$GPRMC,054642.000,A,3715.3052,N,12703.3024,E,12.0,288.3,150911,,,A*56
$GPGLL,3715.3052,N,12703.3024,E,054642.000,A,A*5E
$GPGSA,A,3,03,07,08,11,17,19,22,24,28,,,,,1.0,*3D
$GPVTG,288.3,T,,M,12.0,N,22.2,K,A*0D
$GPGSV,3,1,12,01,00,000,39,07,38,219,36,08,48,258,40,11,81,052,38*7A
$GPGSV,3,2,12,19,37,058,37,24,79,147,42,28,33,313,39,20,10,166,3*42
$GPGSV,3,3,12,17,07,268,37,22,06,040,36,32,17,141,33,03,11,081,*7D
$GPGGA,054643.000,3715.3063,N,12703.2985,E,1,09,1.0,31.5,M,19.9,M,,*65
$GPRMC,054643.000,A,3715.3063,N,12703.2985,E,11.5,294.0,150911,,,A*5E
$GPGLL,3715.3063,N,12703.2985,E,054643.000,A,A*5E
$GPGSA,A,3,03,07,08,11,17,19,22,24,28,,,,,1.0,*3D
$GPVTG,294.0,T,,M,11.5,N,21.2,K,A*06
$GPGSV,3,1,12,01,00,000,39,07,38,219,36,08,48,258,40,11,81,052,38*7A
$GPGSV,3,2,12,19,37,058,38,24,79,147,42,28,33,313,38,20,10,166,3*4C
$GPGSV,3,3,12,17,07,268,37,22,06,040,36,32,17,141,37,03,11,081,*79
$GPGGA,054644.000,3715.3075,N,12703.2951,E,1,09,1.0,31.4,M,19.9,M,,*6D
$GPRMC,054644.000,A,3715.3075,N,12703.2951,E,9.5,298.7,150911,,,A*65
$GPGLL,3715.3075,N,12703.2951,E,054644.000,A,A*57
$GPGSA,A,3,03,07,08,11,17,19,22,24,28,,,,,1.0,*3D
$GPVTG,298.7,T,,M,9.5,N,17.6,K,A*35
$GPGSV,3,1,12,01,00,000,39,07,38,219,37,08,48,258,40,11,81,052,38*7B
$GPGSV,3,2,12,19,37,058,37,24,79,147,42,28,33,313,38,20,10,166,3*43
$GPGSV,3,3,12,17,07,268,37,22,06,040,36,32,17,141,35,03,11,081,*7B
$GPGGA,054645.000,3715.3086,N,12703.2926,E,1,09,1.0,31.4,M,19.9,M,,*60
$GPRMC,054645.000,A,3715.3086,N,12703.2926,E,6.5,301.1,150911,,,A*60
$GPGLL,3715.3086,N,12703.2926,E,054645.000,A,A*5A
$GPGSA,A,3,03,07,08,11,17,19,22,24,28,,,,,1.0,*3D
$GPVTG,301.1,T,,M,6.5,N,12.1,K,A*3F
$GPGSV,3,1,12,01,00,000,40,07,38,219,37,08,48,258,40,11,81,052,38*75
$GPGSV,3,2,12,19,37,058,37,24,79,147,41,28,33,313,38,20,10,166,3*40
$GPGSV,3,3,12,17,07,268,37,22,06,040,36,32,17,141,33,03,11,081,*7D
$GPGGA,054646.000,3715.3093,N,12703.2912,E,1,09,1.0,31.4,M,19.9,M,,*60
$GPRMC,054646.000,A,3715.3093,N,12703.2912,E,3.2,301.4,150911,,,A*67
$GPGLL,3715.3093,N,12703.2912,E,054646.000,A,A*5A
$GPGSA,A,3,03,07,08,11,17,19,22,24,28,,,,,1.0,*3D
$GPVTG,301.4,T,,M,3.2,N,6.0,K,A*0C
$GPGSV,3,1,12,01,00,000,40,07,38,219,37,08,48,258,40,11,81,052,38*75
$GPGSV,3,2,12,19,37,058,36,24,79,145,41,28,33,313,38,20,11,166,3*42
$GPGSV,3,3,12,17,08,268,37,22,06,040,37,32,17,141,28,03,11,082,*7A
$GPGGA,054647.000,3715.3095,N,12703.2906,E,1,09,1.0,31.4,M,19.9,M,,*62
$GPRMC,054647.000,A,3715.3095,N,12703.2906,E,0.7,301.4,150911,,,A*63
$GPGLL,3715.3095,N,12703.2906,E,054647.000,A,A*58
$GPGSA,A,3,03,07,08,11,17,19,22,24,28,,,,,1.0,*3D
$GPVTG,301.4,T,,M,0.7,N,1.4,K,A*09
$GPGSV,3,1,12,01,00,000,40,07,38,219,37,08,48,258,40,11,81,052,38*75
$GPGSV,3,2,12,19,37,058,36,24,79,145,41,28,33,313,38,20,11,166,4*45
$GPGSV,3,3,12,17,08,268,32,22,06,040,37,32,17,141,28,03,11,082,*7F
$GPGGA,054648.000,3715.3095,N,12703.2906,E,1,09,1.0,31.4,M,19.9,M,,*6D
$GPRMC,054648.000,A,3715.3095,N,12703.2906,E,0.0,301.4,150911,,,A*6B
$GPGLL,3715.3095,N,12703.2906,E,054648.000,A,A*57
$GPGSA,A,3,03,07,08,11,17,19,22,24,28,,,,,1.0,*3D
$GPVTG,301.4,T,,M,0.0,N,0.0,K,A*0B
$GPGSV,3,1,11,07,38,219,37,08,48,258,40,11,81,052,38,19,37,058,34*75
$GPGSV,3,2,11,24,79,145,40,28,33,313,38,20,11,166,40,17,08,268,3*42
$GPGSV,3,3,11,22,06,040,37,32,17,141,28,03,11,082,27*4A
$GPGGA,054649.000,3715.3095,N,12703.2906,E,1,09,1.0,31.4,M,19.9,M,,*6C
$GPRMC,054649.000,A,3715.3095,N,12703.2906,E,0.0,301.4,150911,,,A*6A
$GPGLL,3715.3095,N,12703.2906,E,054649.000,A,A*56
$GPGSA,A,3,03,07,08,11,17,19,22,24,28,,,,,1.0,*3D
$GPVTG,301.4,T,,M,0.0,N,0.0,K,A*0B
$GPGSV,3,1,12,16,00,127,29,07,38,219,37,08,48,258,40,11,81,052,38*78
$GPGSV,3,2,12,19,37,058,32,24,79,145,40,28,33,313,38,20,11,166,3*47
$GPGSV,3,3,12,17,08,268,33,22,06,040,37,32,17,141,28,03,11,082,*7E
$GPGGA,054650.000,3715.3095,N,12703.2906,E,1,09,1.0,31.4,M,19.9,M,,*64
$GPRMC,054650.000,A,3715.3095,N,12703.2906,E,0.0,301.4,150911,,,A*62
$GPGLL,3715.3095,N,12703.2906,E,054650.000,A,A*5E
$GPGSA,A,3,03,07,08,11,17,19,22,24,28,,,,,1.0,*3D
$GPVTG,301.4,T,,M,0.0,N,0.0,K,A*0B
$GPGSV,3,1,12,16,00,127,26,07,38,219,37,08,48,258,40,11,81,052,38*77
$GPGSV,3,2,12,19,37,058,32,24,79,145,40,28,33,313,38,20,11,166,3*47
$GPGSV,3,3,12,17,08,268,33,22,06,040,38,32,17,141,28,03,11,082,*71
$GPGGA,054651.000,3715.3095,N,12703.2906,E,1,09,1.0,31.4,M,19.9,M,,*65
$GPRMC,054651.000,A,3715.3095,N,12703.2906,E,0.0,301.4,150911,,,A*63
$GPGLL,3715.3095,N,12703.2906,E,054651.000,A,A*5F
$GPGSA,A,3,03,07,08,11,17,19,22,24,28,,,,,1.0,*3D
$GPVTG,301.4,T,,M,0.0,N,0.0,K,A*0B
$GPGSV,3,1,12,16,00,127,21,07,38,219,37,08,48,258,41,11,81,052,38*71
$GPGSV,3,2,12,19,37,058,32,24,79,145,40,28,33,313,38,20,11,166,3*47
$GPGSV,3,3,12,17,08,268,33,22,06,040,38,32,17,141,28,03,11,082,*71
$GPGGA,054652.000,3715.3095,N,12703.2906,E,1,09,1.0,31.4,M,19.9,M,,*66
$GPRMC,054652.000,A,3715.3095,N,12703.2906,E,0.0,301.4,150911,,,A*60
$GPGLL,3715.3095,N,12703.2906,E,054652.000,A,A*5C
$GPGSA,A,3,03,07,08,11,17,19,22,24,28,,,,,1.0,*3D
$GPVTG,301.4,T,,M,0.0,N,0.0,K,A*0B
$GPGSV,3,1,12,16,00,127,23,07,38,219,37,08,48,258,41,11,81,052,39*72
$GPGSV,3,2,12,19,37,058,32,24,79,145,40,28,33,313,38,20,11,166,3*47
$GPGSV,3,3,12,17,08,268,33,22,06,040,38,32,17,141,28,03,11,082,*71
$GPGGA,054653.000,3715.3095,N,12703.2906,E,1,09,1.0,31.4,M,19.9,M,,*67
$GPRMC,054653.000,A,3715.3095,N,12703.2906,E,0.0,301.4,150911,,,A*61
$GPGLL,3715.3095,N,12703.2906,E,054653.000,A,A*5D
$GPGSA,A,3,03,07,08,11,17,19,22,24,28,,,,,1.0,*3D
$GPVTG,301.4,T,,M,0.0,N,0.0,K,A*0B
$GPGSV,3,1,12,16,00,127,22,07,38,219,37,08,48,258,41,11,81,052,38*72
$GPGSV,3,2,12,19,37,058,32,24,79,145,40,28,33,313,38,20,11,166,3*47
$GPGSV,3,3,12,17,08,268,33,22,06,040,38,32,17,141,28,03,11,082,*71
$GPGGA,054654.000,3715.3095,N,12703.2906,E,1,09,1.0,31.4,M,19.9,M,,*60
$GPRMC,054654.000,A,3715.3095,N,12703.2906,E,0.0,301.4,150911,,,A*66
$GPGLL,3715.3095,N,12703.2906,E,054654.000,A,A*5A
$GPGSA,A,3,03,07,08,11,17,19,22,24,28,,,,,1.0,*3D
$GPVTG,301.4,T,,M,0.0,N,0.0,K,A*0B
$GPGSV,3,1,12,16,00,127,21,07,38,219,37,08,48,258,42,11,81,052,38*72
$GPGSV,3,2,12,19,37,058,32,24,79,145,40,28,33,313,38,20,11,166,3*47
$GPGSV,3,3,12,17,08,268,33,22,06,040,38,32,17,141,28,03,11,082,*71
$GPGGA,054655.000,3715.3095,N,12703.2906,E,1,09,1.0,31.4,M,19.9,M,,*61
$GPRMC,054655.000,A,3715.3095,N,12703.2906,E,0.0,301.4,150911,,,A*67
$GPGLL,3715.3095,N,12703.2906,E,054655.000,A,A*5B
$GPGSA,A,3,03,07,08,11,17,19,22,24,28,,,,,1.0,*3D
$GPVTG,301.4,T,,M,0.0,N,0.0,K,A*0B
$GPGSV,3,1,12,16,00,127,21,07,38,219,37,08,48,258,42,11,81,052,38*72
$GPGSV,3,2,12,19,37,058,32,24,79,145,40,28,33,313,38,20,11,166,3*47
$GPGSV,3,3,12,17,08,268,32,22,06,040,38,32,17,141,28,03,11,082,*70
$GPGGA,054656.000,3715.3095,N,12703.2906,E,1,09,1.0,31.4,M,19.9,M,,*62
$GPRMC,054656.000,A,3715.3095,N,12703.2906,E,0.0,301.4,150911,,,A*64
$GPGLL,3715.3095,N,12703.2906,E,054656.000,A,A*58
$GPGSA,A,3,03,07,08,11,17,19,22,24,28,,,,,1.0,*3D
$GPVTG,301.4,T,,M,0.0,N,0.0,K,A*0B
$GPGSV,3,1,12,16,00,127,21,07,38,219,36,08,48,258,42,11,81,052,38*73
$GPGSV,3,2,12,19,37,058,32,24,79,145,40,28,33,313,38,20,11,166,3*47
$GPGSV,3,3,12,17,08,268,32,22,06,040,38,32,17,141,28,03,11,082,*70
$GPGGA,054657.000,3715.3095,N,12703.2906,E,1,09,1.0,31.4,M,19.9,M,,*63
